title,price,address,item_url,date,Вход,Отдельный вход,Общая площадь,Этаж,Высота потолков,Отделка,Мощность электросети,Отопление,Тип аренды,Минимальный срок аренды,Тип здания,Удалённость от дороги,Парковка,lat,lon,Арендные каникулы,Количество парковочных мест,Платежи включены,Аренда части,Планировка,Класс здания
"Свободного назначения, 51.4 м²",51400,"ул. Профессора Камая, 10к2Казань",https://www.avito.ru/kazan/kommercheskaya_nedvizhimost/svobodnogo_naznacheniya_51.4_m_7326674499?context=H4sIAAAAAAAA_wE_AMD_YToyOntzOjEzOiJsb2NhbFByaW9yaXR5IjtiOjA7czoxOiJ4IjtzOjE2OiJuazJYdUhMWEdodzJVQjZZIjt9HdiNeT8AAAA,1 час назад,с улицы,есть,51.4 м²,1.0,3.1 м,без отделки,"10 кВт, можно увеличить",центральное,прямая,11 мес.,жилой дом,вторая линия и дальше,"на улице, бесплатная, подходит для грузового транспорта",55.749167,49.183903,,,,,,
Свободного назначения,1500,"ул. Шамиля Усманова, 18ДНабережные Челны",https://www.avito.ru/naberezhnye_chelny/kommercheskaya_nedvizhimost/svobodnogo_naznacheniya_7339431918?context=H4sIAAAAAAAA_wE_AMD_YToyOntzOjEzOiJsb2NhbFByaW9yaXR5IjtiOjA7czoxOiJ4IjtzOjE2OiJuazJYdUhMWEdodzJVQjZZIjt9HdiNeT8AAAA,1 час назад,с улицы,есть,105.6 м²,1.0,4.2 м,без отделки,20 кВт,,прямая,11 мес.,другой,,"на улице, бесплатная",55.72695923,52.3827858,есть,50.0,,,,
Свободного назначения,108900,"32-й комплекс, 9Набережные Челны",https://www.avito.ru/naberezhnye_chelny/kommercheskaya_nedvizhimost/svobodnogo_naznacheniya_7362482013?context=H4sIAAAAAAAA_wE_AMD_YToyOntzOjEzOiJsb2NhbFByaW9yaXR5IjtiOjA7czoxOiJ4IjtzOjE2OiJuazJYdUhMWEdodzJVQjZZIjt9HdiNeT8AAAA,1 час назад,с улицы,,72.6 м²,1.0,2.5 м,офисная,220 кВт,,прямая,11 мес.,жилой дом,,на улице,55.72448349,52.37552643,есть,,,,,
Свободного назначения,1000,"ул. Баки Урманче, 15Нижнекамск",https://www.avito.ru/nizhnekamsk/kommercheskaya_nedvizhimost/svobodnogo_naznacheniya_7369273206?context=H4sIAAAAAAAA_wE_AMD_YToyOntzOjEzOiJsb2NhbFByaW9yaXR5IjtiOjA7czoxOiJ4IjtzOjE2OiJuazJYdUhMWEdodzJVQjZZIjt9HdiNeT8AAAA,3 часа назад,с улицы,,10 м²,1.0,,чистовая,,,прямая,11 мес.,торговый центр,,на улице,55.63936996,51.81071854,есть,,,,,
"Теплое помещение свободного назначения, 108 м²",400,"ул. Кирова, 1с. Большие Бутырки",https://www.avito.ru/pestretsy/kommercheskaya_nedvizhimost/teploe_pomeschenie_svobodnogo_naznacheniya_108_m_7352852589?context=H4sIAAAAAAAA_wE_AMD_YToyOntzOjEzOiJsb2NhbFByaW9yaXR5IjtiOjA7czoxOiJ4IjtzOjE2OiJuazJYdUhMWEdodzJVQjZZIjt9HdiNeT8AAAA,4 часа назад,с улицы,есть,108 м²,1.0,3 м,чистовая,15 кВт,,прямая,6 мес.,административное здание,,"на улице, бесплатная, подходит для грузового транспорта",55.8280286484097,49.7291173150054,есть,,,,,
Склад (морской контейнер) в аренду,7000,"Индустриальный пр., 47Набережные Челны",https://www.avito.ru/naberezhnye_chelny/kommercheskaya_nedvizhimost/sklad_morskoy_konteyner_v_arendu_7332125928?context=H4sIAAAAAAAA_wE_AMD_YToyOntzOjEzOiJsb2NhbFByaW9yaXR5IjtiOjA7czoxOiJ4IjtzOjE2OiJuazJYdUhMWEdodzJVQjZZIjt9HdiNeT8AAAA,4 часа назад,с улицы,есть,15 м²,1.0,2 м,без отделки,,,прямая,1 мес.,другой,,"на улице, подходит для грузового транспорта",55.71777362013451,52.43848561222113,есть,5.0,коммунальные,,,
"Свободного назначения, 112 м²",45000,"Большая Покровская ул., 136Елабуга",https://www.avito.ru/elabuga/kommercheskaya_nedvizhimost/svobodnogo_naznacheniya_112_m_7326160269?context=H4sIAAAAAAAA_wE_AMD_YToyOntzOjEzOiJsb2NhbFByaW9yaXR5IjtiOjA7czoxOiJ4IjtzOjE2OiJuazJYdUhMWEdodzJVQjZZIjt9HdiNeT8AAAA,5 часов назад,с улицы,есть,112 м²,1.0,4 м,чистовая,,автономное,прямая,,другой,,"на улице, бесплатная",55.749268,52.095459,,,,,,
"В аренду на территории Яхт-клуба ""Аракчино"", на бе",120000,"2-я Старо-Аракчинская ул., 11Казань",https://www.avito.ru/kazan/kommercheskaya_nedvizhimost/v_arendu_na_territorii_yaht-kluba_arakchino_na_be_7373859338?context=H4sIAAAAAAAA_wE_AMD_YToyOntzOjEzOiJsb2NhbFByaW9yaXR5IjtiOjA7czoxOiJ4IjtzOjE2OiJuazJYdUhMWEdodzJVQjZZIjt9HdiNeT8AAAA,5 часов назад,с улицы,есть,100 м²,1.0,4 м,чистовая,"50 кВт, можно увеличить",,прямая,11 мес.,другой,,"на улице, бесплатная, подходит для грузового транспорта",55.800686,48.967669,есть,50.0,,,,
"Свободного назначения, 80 м²",144000,"ул. Горьковское Шоссе, 2Ак1Казань",https://www.avito.ru/kazan/kommercheskaya_nedvizhimost/svobodnogo_naznacheniya_80_m_7353905160?context=H4sIAAAAAAAA_wE_AMD_YToyOntzOjEzOiJsb2NhbFByaW9yaXR5IjtiOjA7czoxOiJ4IjtzOjE2OiJuazJYdUhMWEdodzJVQjZZIjt9HdiNeT8AAAA,5 часов назад,с улицы,есть,80 м²,1.0,5 м,без отделки,"20 кВт, можно увеличить",центральное,прямая,11 мес.,жилой дом,первая линия,"на улице, бесплатная",55.825502,49.04116,есть,,,,,
Сдается помещение на первой линии,1500,"пр-т Чулман, 1АНабережные Челны",https://www.avito.ru/naberezhnye_chelny/kommercheskaya_nedvizhimost/sdaetsya_pomeschenie_na_pervoy_linii_7346615535?context=H4sIAAAAAAAA_wE_AMD_YToyOntzOjEzOiJsb2NhbFByaW9yaXR5IjtiOjA7czoxOiJ4IjtzOjE2OiJuazJYdUhMWEdodzJVQjZZIjt9HdiNeT8AAAA,5 часов назад,с улицы,,108 м²,1.0,,офисная,,,прямая,,торговый центр,,нет,55.719967,52.358019,,,,,,
"Свободного назначения, 60 М2. Мой Ритм",1700,"ул. Петра Полушкина, 4Казань",https://www.avito.ru/kazan/kommercheskaya_nedvizhimost/svobodnogo_naznacheniya_60_m2._moy_ritm_7346662494?context=H4sIAAAAAAAA_wE_AMD_YToyOntzOjEzOiJsb2NhbFByaW9yaXR5IjtiOjA7czoxOiJ4IjtzOjE2OiJuazJYdUhMWEdodzJVQjZZIjt9HdiNeT8AAAA,5 часов назад,с улицы,,60 м²,1.0,,чистовая,,,прямая,,жилой дом,,нет,55.785007,49.21661,,,,,,
"Под магазин, офис, салон, услуги на 1 линии",65000,"Тэцевская ул., 4БКазань",https://www.avito.ru/kazan/kommercheskaya_nedvizhimost/pod_magazin_ofis_salon_uslugi_na_1_linii_7352451714?context=H4sIAAAAAAAA_wE_AMD_YToyOntzOjEzOiJsb2NhbFByaW9yaXR5IjtiOjA7czoxOiJ4IjtzOjE2OiJuazJYdUhMWEdodzJVQjZZIjt9HdiNeT8AAAA,6 часов назад,с улицы,,52 м²,1.0,4 м,чистовая,50 кВт,,прямая,,жилой дом,,на улице,55.850403,49.065963,есть,,эксплуатационные,,,
"Первая линия, доступ 24/7, Оренбургский проезд,203",2000,"Оренбургский пр., 203Казань",https://www.avito.ru/kazan/kommercheskaya_nedvizhimost/pervaya_liniya_dostup_247_orenburgskiy_proezd203_7346247168?context=H4sIAAAAAAAA_wE_AMD_YToyOntzOjEzOiJsb2NhbFByaW9yaXR5IjtiOjA7czoxOiJ4IjtzOjE2OiJuazJYdUhMWEdodzJVQjZZIjt9HdiNeT8AAAA,8 часов назад,с улицы,есть,80 м²,1.0,3 м,без отделки,,,прямая,11 мес.,другой,,на улице,55.73400497,49.1829071,есть,,,,,
"Помещение под склад в центре города, доступ 24/7",1500,"пер. Кирова, 5Казань",https://www.avito.ru/kazan/kommercheskaya_nedvizhimost/pomeschenie_pod_sklad_v_tsentre_goroda_dostup_247_7346529794?context=H4sIAAAAAAAA_wE_AMD_YToyOntzOjEzOiJsb2NhbFByaW9yaXR5IjtiOjA7czoxOiJ4IjtzOjE2OiJuazJYdUhMWEdodzJVQjZZIjt9HdiNeT8AAAA,9 часов назад,с улицы,есть,29.1 м²,1.0,3.5 м,чистовая,,,прямая,11 мес.,другой,,на улице,55.79143143,49.10588455,есть,,,,,
"Свободное назначение 33м2, Ломжинская ул., 24А",80000,"Ломжинская ул., 24АКазань",https://www.avito.ru/kazan/kommercheskaya_nedvizhimost/svobodnoe_naznachenie_33m2_lomzhinskaya_ul._24a_7352956169?context=H4sIAAAAAAAA_wE_AMD_YToyOntzOjEzOiJsb2NhbFByaW9yaXR5IjtiOjA7czoxOiJ4IjtzOjE2OiJuazJYdUhMWEdodzJVQjZZIjt9HdiNeT8AAAA,9 часов назад,с улицы,есть,33 м²,1.0,2.8 м,чистовая,14 кВт,,прямая,,другой,,нет,55.766577,49.230471,есть,,,,,
Холодный склад от 50 м² до 1000 м²,300,"Механизаторный пр., 18/1Набережные Челны",https://www.avito.ru/naberezhnye_chelny/kommercheskaya_nedvizhimost/holodnyy_sklad_ot_50_m_do_1000_m_7365356127?context=H4sIAAAAAAAA_wE_AMD_YToyOntzOjEzOiJsb2NhbFByaW9yaXR5IjtiOjA7czoxOiJ4IjtzOjE2OiJuazJYdUhMWEdodzJVQjZZIjt9HdiNeT8AAAA,9 часов назад,со двора,,50 м²,1.0,5 м,чистовая,300 кВт,,прямая,1 мес.,другой,,"на улице, подходит для грузового транспорта",55.73880386,52.49831009,есть,,,возможна,,
Свободного назначения,102600,"ул. Азата Аббасова, 13Казань",https://www.avito.ru/kazan/kommercheskaya_nedvizhimost/svobodnogo_naznacheniya_7347638166?context=H4sIAAAAAAAA_wE_AMD_YToyOntzOjEzOiJsb2NhbFByaW9yaXR5IjtiOjA7czoxOiJ4IjtzOjE2OiJuazJYdUhMWEdodzJVQjZZIjt9HdiNeT8AAAA,Вчера,с улицы,,54 м²,1.0,3 м,офисная,220 кВт,,прямая,11 мес.,жилой дом,,"на улице, бесплатная",55.79113007,49.25039673,есть,,,,,
В центре Казани на ул Островского,479000,"ул. Островского, 104Казань",https://www.avito.ru/kazan/kommercheskaya_nedvizhimost/v_tsentre_kazani_na_ul_ostrovskogo_7325657199?context=H4sIAAAAAAAA_wE_AMD_YToyOntzOjEzOiJsb2NhbFByaW9yaXR5IjtiOjA7czoxOiJ4IjtzOjE2OiJuazJYdUhMWEdodzJVQjZZIjt9HdiNeT8AAAA,Вчера,с улицы,,137 м²,1.0,4 м,без отделки,,,прямая,,жилой дом,,в здании,55.779342,49.133426,есть,,,,,
Свободного назначения,27000,"53-й комплекс, 27БНабережные Челны",https://www.avito.ru/naberezhnye_chelny/kommercheskaya_nedvizhimost/svobodnogo_naznacheniya_7387321763?context=H4sIAAAAAAAA_wE_AMD_YToyOntzOjEzOiJsb2NhbFByaW9yaXR5IjtiOjA7czoxOiJ4IjtzOjE2OiJuazJYdUhMWEdodzJVQjZZIjt9HdiNeT8AAAA,Вчера,с улицы,есть,18 м²,1.0,2.5 м,офисная,,,прямая,11 мес.,жилой дом,,"на улице, бесплатная",55.74744415,52.44014359,,1.0,,,,
"Свободного назначения, 90 м²",1200,"ул. Габдуллы Тукая, 2с. Новое Шигалеево",https://www.avito.ru/kazan/kommercheskaya_nedvizhimost/svobodnogo_naznacheniya_90_m_7361244789?context=H4sIAAAAAAAA_wE_AMD_YToyOntzOjEzOiJsb2NhbFByaW9yaXR5IjtiOjA7czoxOiJ4IjtzOjE2OiJuazJYdUhMWEdodzJVQjZZIjt9HdiNeT8AAAA,Вчера,с улицы,есть,90 м²,1.0,,чистовая,,центральное,субаренда,,торговый центр,первая линия,"на улице, бесплатная",55.810941,49.431308,,,,,,
Склад,10000,"ул. Клары Цеткин, 8/27Казань",https://www.avito.ru/kazan/kommercheskaya_nedvizhimost/sklad_7349315881?context=H4sIAAAAAAAA_wE_AMD_YToyOntzOjEzOiJsb2NhbFByaW9yaXR5IjtiOjA7czoxOiJ4IjtzOjE2OiJuazJYdUhMWEdodzJVQjZZIjt9HdiNeT8AAAA,Вчера,с улицы,,28 м²,1.0,2.7 м,без отделки,,,прямая,,другой,,на улице,55.800286,49.066717,есть,,"коммунальные, эксплуатационные",,,
"Свободного назначения, склад",25000,"ул. Клары Цеткин, 10Казань",https://www.avito.ru/kazan/kommercheskaya_nedvizhimost/svobodnogo_naznacheniya_sklad_7387031460?context=H4sIAAAAAAAA_wE_AMD_YToyOntzOjEzOiJsb2NhbFByaW9yaXR5IjtiOjA7czoxOiJ4IjtzOjE2OiJuazJYdUhMWEdodzJVQjZZIjt9HdiNeT8AAAA,Вчера,со двора,есть,35 м²,1.0,2.8 м,чистовая,5 кВт,,прямая,11 мес.,другой,,"на улице, бесплатная",55.800162941094406,49.0641307103549,есть,10.0,"коммунальные, эксплуатационные",,,
"Торговая площадь, 26 м²",35000,"ул. Липатова, 7Казань",https://www.avito.ru/kazan/kommercheskaya_nedvizhimost/torgovaya_ploschad_26_m_7330950143?context=H4sIAAAAAAAA_wE_AMD_YToyOntzOjEzOiJsb2NhbFByaW9yaXR5IjtiOjA7czoxOiJ4IjtzOjE2OiJuazJYdUhMWEdodzJVQjZZIjt9HdiNeT8AAAA,Вчера,с улицы,есть,26 м²,1.0,2.3 м,чистовая,15 кВт,,прямая,6 мес.,административное здание,,"на улице, бесплатная, подходит для грузового транспорта",55.871082,49.222467,есть,2.0,эксплуатационные,,,
"Офис, торговая площадь на первой линии",50000,"ул. Михаила Миля, 59Казань",https://www.avito.ru/kazan/kommercheskaya_nedvizhimost/ofis_torgovaya_ploschad_na_pervoy_linii_7346923529?context=H4sIAAAAAAAA_wE_AMD_YToyOntzOjEzOiJsb2NhbFByaW9yaXR5IjtiOjA7czoxOiJ4IjtzOjE2OiJuazJYdUhMWEdodzJVQjZZIjt9HdiNeT8AAAA,Вчера,с улицы,,45 м²,1.0,,офисная,,,прямая,,административное здание,,на улице,55.84863,49.126186,,,,,,
"Свободного назначения, 141.69 м²",850,"3-я Победиловская ул., 3АКазань",https://www.avito.ru/kazan/kommercheskaya_nedvizhimost/svobodnogo_naznacheniya_141.69_m_7361139926?context=H4sIAAAAAAAA_wE_AMD_YToyOntzOjEzOiJsb2NhbFByaW9yaXR5IjtiOjA7czoxOiJ4IjtzOjE2OiJuazJYdUhMWEdodzJVQjZZIjt9HdiNeT8AAAA,Вчера,с улицы,есть,141.69 м²,1.0,3 м,офисная,35 кВт,центральное,прямая,11 мес.,административное здание,первая линия,"на улице, бесплатная",55.722892,49.089032,,,,,,
Свободного назначения,27300,"ул. Маршала Чуйкова, 23Казань",https://www.avito.ru/kazan/kommercheskaya_nedvizhimost/svobodnogo_naznacheniya_7335238781?context=H4sIAAAAAAAA_wE_AMD_YToyOntzOjEzOiJsb2NhbFByaW9yaXR5IjtiOjA7czoxOiJ4IjtzOjE2OiJuazJYdUhMWEdodzJVQjZZIjt9HdiNeT8AAAA,Вчера,с улицы,,21 м²,1.0,,чистовая,3 кВт,,прямая,5 мес.,жилой дом,,на улице,55.83688736,49.11849594,есть,,,,,
"Производство, склад",800,"Тэцевская ул., 3Казань",https://www.avito.ru/kazan/kommercheskaya_nedvizhimost/proizvodstvo_sklad_7387061218?context=H4sIAAAAAAAA_wE_AMD_YToyOntzOjEzOiJsb2NhbFByaW9yaXR5IjtiOjA7czoxOiJ4IjtzOjE2OiJuazJYdUhMWEdodzJVQjZZIjt9HdiNeT8AAAA,Вчера,со двора,есть,65 м²,1.0,6 м,чистовая,30 кВт,,прямая,11 мес.,другой,,"на улице, бесплатная",55.84753184181762,49.07669862401752,есть,5.0,"коммунальные, эксплуатационные",,,
"Свободного назначения, 105.6 м²",1500,"ул. Шамиля Усманова, 18ДНабережные Челны",https://www.avito.ru/naberezhnye_chelny/kommercheskaya_nedvizhimost/svobodnogo_naznacheniya_105.6_m_7360551513?context=H4sIAAAAAAAA_wE_AMD_YToyOntzOjEzOiJsb2NhbFByaW9yaXR5IjtiOjA7czoxOiJ4IjtzOjE2OiJuazJYdUhMWEdodzJVQjZZIjt9HdiNeT8AAAA,Вчера,с улицы,есть,105.6 м²,1.0,4.2 м,без отделки,20 кВт,центральное,прямая,60 мес.,другой,вторая линия и дальше,"на улице, бесплатная",55.726958,52.382785,есть,20.0,,,,
"Торговая площадь, 30 м²",70000,"ул. Четаева, 43АКазань",https://www.avito.ru/kazan/kommercheskaya_nedvizhimost/torgovaya_ploschad_30_m_7361711683?context=H4sIAAAAAAAA_wE_AMD_YToyOntzOjEzOiJsb2NhbFByaW9yaXR5IjtiOjA7czoxOiJ4IjtzOjE2OiJuazJYdUhMWEdodzJVQjZZIjt9HdiNeT8AAAA,Вчера,с улицы,есть,30 м²,1.0,3.5 м,чистовая,5 кВт,центральное,прямая,,жилой дом,первая линия,"на улице, бесплатная",55.823909,49.113457,,,,,,
"Свободного назначения, 132.8 м²",170,"ул. Дементьева, 2к2Казань",https://www.avito.ru/kazan/kommercheskaya_nedvizhimost/svobodnogo_naznacheniya_132.8_m_7342828229?context=H4sIAAAAAAAA_wE_AMD_YToyOntzOjEzOiJsb2NhbFByaW9yaXR5IjtiOjA7czoxOiJ4IjtzOjE2OiJuazJYdUhMWEdodzJVQjZZIjt9HdiNeT8AAAA,Вчера,со двора,есть,132.8 м²,1.0,,офисная,,нет,субаренда,,административное здание,,на улице,55.845345,49.088825,,,эксплуатационные,,,
Свободного назначения,900,"ул. Чоловского, 15/1Менделеевск",https://www.avito.ru/mendeleevsk/kommercheskaya_nedvizhimost/svobodnogo_naznacheniya_7347526358?context=H4sIAAAAAAAA_wE_AMD_YToyOntzOjEzOiJsb2NhbFByaW9yaXR5IjtiOjA7czoxOiJ4IjtzOjE2OiJuazJYdUhMWEdodzJVQjZZIjt9HdiNeT8AAAA,Вчера,с улицы,,77 м²,1.0,11 м,чистовая,,,прямая,,торговый центр,,"на улице, бесплатная",55.88273621,52.30271912,есть,,коммунальные,,,
"Торговая площадь, 18 м²",36000,"Оренбургский тракт, 158Казань",https://www.avito.ru/kazan/kommercheskaya_nedvizhimost/torgovaya_ploschad_18_m_7335926322?context=H4sIAAAAAAAA_wE_AMD_YToyOntzOjEzOiJsb2NhbFByaW9yaXR5IjtiOjA7czoxOiJ4IjtzOjE2OiJuazJYdUhMWEdodzJVQjZZIjt9HdiNeT8AAAA,Вчера,с улицы,,18 м²,1.0,3.8 м,чистовая,5 кВт,автономное,прямая,,торговый центр,первая линия,"на улице, бесплатная, подходит для грузового транспорта",55.724784,49.191835,,2000.0,эксплуатационные,,,
"Свободного назначения, 10 м²",60000,"пр-т Победы, 50БКазань",https://www.avito.ru/kazan/kommercheskaya_nedvizhimost/svobodnogo_naznacheniya_10_m_7336239224?context=H4sIAAAAAAAA_wE_AMD_YToyOntzOjEzOiJsb2NhbFByaW9yaXR5IjtiOjA7czoxOiJ4IjtzOjE2OiJuazJYdUhMWEdodzJVQjZZIjt9HdiNeT8AAAA,Вчера,с улицы,есть,10 м²,1.0,,чистовая,,центральное,прямая,11 мес.,торговый центр,первая линия,"в здании, бесплатная",55.748418097969534,49.20677423544309,,,"коммунальные, эксплуатационные",,,
Свободного назначения,42000,"Приволжский район, Магистральная ул., 124Казань",https://www.avito.ru/kazan/kommercheskaya_nedvizhimost/svobodnogo_naznacheniya_7375541622?context=H4sIAAAAAAAA_wE_AMD_YToyOntzOjEzOiJsb2NhbFByaW9yaXR5IjtiOjA7czoxOiJ4IjtzOjE2OiJuazJYdUhMWEdodzJVQjZZIjt9HdiNeT8AAAA,Вчера,с улицы,есть,50 м²,1.0,,офисная,,,прямая,9 мес.,торговый центр,,на улице,55.7453916747702,49.10455065562776,есть,,,,,
"Первая линия, отдельный вход, Беломорская,69Ак1",1500,"Беломорская ул., 69Ак1Казань",https://www.avito.ru/kazan/kommercheskaya_nedvizhimost/pervaya_liniya_otdelnyy_vhod_belomorskaya69ak1_7346957697?context=H4sIAAAAAAAA_wE_AMD_YToyOntzOjEzOiJsb2NhbFByaW9yaXR5IjtiOjA7czoxOiJ4IjtzOjE2OiJuazJYdUhMWEdodzJVQjZZIjt9HdiNeT8AAAA,3 дня назад,с улицы,есть,22 м²,1.0,3 м,чистовая,50 кВт,,прямая,11 мес.,другой,,на улице,55.86565781,49.02928543,есть,,,,,
Свободного назначения,45000,"ул. Академика Завойского, 13Казань",https://www.avito.ru/kazan/kommercheskaya_nedvizhimost/svobodnogo_naznacheniya_7336282091?context=H4sIAAAAAAAA_wE_AMD_YToyOntzOjEzOiJsb2NhbFByaW9yaXR5IjtiOjA7czoxOiJ4IjtzOjE2OiJuazJYdUhMWEdodzJVQjZZIjt9HdiNeT8AAAA,3 дня назад,с улицы,есть,50 м²,1.0,3 м,чистовая,220 кВт,,прямая,,жилой дом,,"на улице, бесплатная, подходит для грузового транспорта",55.75859833,49.23910522,есть,,,,,
Свободного назначения,180000,"Ленинградская ул., 56АКазань",https://www.avito.ru/kazan/kommercheskaya_nedvizhimost/svobodnogo_naznacheniya_7352614124?context=H4sIAAAAAAAA_wE_AMD_YToyOntzOjEzOiJsb2NhbFByaW9yaXR5IjtiOjA7czoxOiJ4IjtzOjE2OiJuazJYdUhMWEdodzJVQjZZIjt9HdiNeT8AAAA,3 дня назад,с улицы,есть,120 м²,1.0,3 м,чистовая,"60 кВт, можно увеличить",,прямая,,другой,,"на улице, бесплатная",55.868948489206,49.08933298718915,есть,,,,,
Свободного назначения,40000,"ул. Николая Гоголя, 75Бугульма",https://www.avito.ru/bugulma/kommercheskaya_nedvizhimost/svobodnogo_naznacheniya_7369419933?context=H4sIAAAAAAAA_wE_AMD_YToyOntzOjEzOiJsb2NhbFByaW9yaXR5IjtiOjA7czoxOiJ4IjtzOjE2OiJuazJYdUhMWEdodzJVQjZZIjt9HdiNeT8AAAA,3 дня назад,со двора,есть,64 м²,1.0,,без отделки,,,прямая,,жилой дом,,на улице,54.52672195,52.78966904,,,,,,
Свободного назначения. Подходит для,530,"ул. Ялчыгола, 1Заинск",https://www.avito.ru/zainsk/kommercheskaya_nedvizhimost/svobodnogo_naznacheniya._podhodit_dlya_7375580802?context=H4sIAAAAAAAA_wE_AMD_YToyOntzOjEzOiJsb2NhbFByaW9yaXR5IjtiOjA7czoxOiJ4IjtzOjE2OiJuazJYdUhMWEdodzJVQjZZIjt9HdiNeT8AAAA,3 дня назад,со двора,есть,70 м²,1.0,3.2 м,чистовая,12 кВт,,прямая,,жилой дом,,"на улице, бесплатная, подходит для грузового транспорта",55.29016876,52.00588989,есть,9.0,,,,
Шаурма/Пекарня/Тандыр,30000,"Приволжский район, мкр-н Горки-3, Дубравная ул., 11БКазань",https://www.avito.ru/kazan/kommercheskaya_nedvizhimost/shaurmapekarnyatandyr_7370956867?context=H4sIAAAAAAAA_wE_AMD_YToyOntzOjEzOiJsb2NhbFByaW9yaXR5IjtiOjA7czoxOiJ4IjtzOjE2OiJuazJYdUhMWEdodzJVQjZZIjt9HdiNeT8AAAA,3 дня назад,с улицы,есть,12 м²,1.0,3 м,чистовая,"30 кВт, можно увеличить",,прямая,2 мес.,торговый центр,,"на улице, бесплатная, подходит для грузового транспорта",55.74102402,49.21880341,есть,25.0,эксплуатационные,,,
Офис,1200,"ул. Профессора Камая, 10к1Казань",https://www.avito.ru/kazan/kommercheskaya_nedvizhimost/ofis_7326346214?context=H4sIAAAAAAAA_wE_AMD_YToyOntzOjEzOiJsb2NhbFByaW9yaXR5IjtiOjA7czoxOiJ4IjtzOjE2OiJuazJYdUhMWEdodzJVQjZZIjt9HdiNeT8AAAA,3 дня назад,,,43.7 м²,1.0,,офисная,,,прямая,11 мес.,жилой дом,,на улице,55.74921799,49.18473053,есть,,,,кабинетная,
Торговая площадь 26 кв.м,18000,"ул. Ленина, 32Азнакаево",https://www.avito.ru/aznakaevo/kommercheskaya_nedvizhimost/torgovaya_ploschad_26_kv.m_7359198983?context=H4sIAAAAAAAA_wE_AMD_YToyOntzOjEzOiJsb2NhbFByaW9yaXR5IjtiOjA7czoxOiJ4IjtzOjE2OiJuazJYdUhMWEdodzJVQjZZIjt9HdiNeT8AAAA,3 дня назад,с улицы,,26 м²,1.0,2.8 м,чистовая,,,прямая,,другой,,"на улице, бесплатная",54.85397339,53.07807159,,,"коммунальные, эксплуатационные",,,
Свободного назначения,20000,"ул. Юлиуса Фучика, 99АКазань",https://www.avito.ru/kazan/kommercheskaya_nedvizhimost/svobodnogo_naznacheniya_7325221788?context=H4sIAAAAAAAA_wE_AMD_YToyOntzOjEzOiJsb2NhbFByaW9yaXR5IjtiOjA7czoxOiJ4IjtzOjE2OiJuazJYdUhMWEdodzJVQjZZIjt9HdiNeT8AAAA,3 дня назад,со двора,,20 м²,1.0,,чистовая,,,прямая,11 мес.,жилой дом,,на улице,55.75418091,49.22977066,есть,,,,,
Помещение в Ново-Савиновском районе,125000,"ул. Короленко, 28БКазань",https://www.avito.ru/kazan/kommercheskaya_nedvizhimost/pomeschenie_v_novo-savinovskom_rayone_7387030846?context=H4sIAAAAAAAA_wE_AMD_YToyOntzOjEzOiJsb2NhbFByaW9yaXR5IjtiOjA7czoxOiJ4IjtzOjE2OiJuazJYdUhMWEdodzJVQjZZIjt9HdiNeT8AAAA,3 дня назад,с улицы,есть,85.6 м²,1.0,3.1 м,офисная,15 кВт,центральное,прямая,,жилой дом,первая линия,на улице,55.833572,49.101851,,,,,,
"Помещение свободного назначения в центре Казани ЖК ""Costura Town""",478800,"ул. Островского, 116Казань",https://www.avito.ru/kazan/kommercheskaya_nedvizhimost/pomeschenie_svobodnogo_naznacheniya_v_tsentre_kazani_zhk_costura_town_7387333193?context=H4sIAAAAAAAA_wE_AMD_YToyOntzOjEzOiJsb2NhbFByaW9yaXR5IjtiOjA7czoxOiJ4IjtzOjE2OiJuazJYdUhMWEdodzJVQjZZIjt9HdiNeT8AAAA,3 дня назад,с улицы,есть,136.8 м²,1.0,5.5 м,без отделки,30 кВт,центральное,прямая,,жилой дом,первая линия,в здании,55.776436,49.139544,,,,,,
Сдаю помещение 49 кв в ЖК Мой ритм,93100,"ул. Петра Полушкина, 6Казань",https://www.avito.ru/kazan/kommercheskaya_nedvizhimost/sdayu_pomeschenie_49_kv_v_zhk_moy_ritm_7352650510?context=H4sIAAAAAAAA_wE_AMD_YToyOntzOjEzOiJsb2NhbFByaW9yaXR5IjtiOjA7czoxOiJ4IjtzOjE2OiJuazJYdUhMWEdodzJVQjZZIjt9HdiNeT8AAAA,3 дня назад,с улицы,,49 м²,1.0,4 м,без отделки,15 кВт,,прямая,,жилой дом,,на улице,55.785903,49.216664,есть,,,,,
"Торговая площадь, 90 м²",120000,"ул. Академика Сахарова, 31Казань",https://www.avito.ru/kazan/kommercheskaya_nedvizhimost/torgovaya_ploschad_90_m_7370254719?context=H4sIAAAAAAAA_wE_AMD_YToyOntzOjEzOiJsb2NhbFByaW9yaXR5IjtiOjA7czoxOiJ4IjtzOjE2OiJuazJYdUhMWEdodzJVQjZZIjt9HdiNeT8AAAA,3 дня назад,с улицы,есть,90 м²,1.0,2.6 м,офисная,15 кВт,центральное,прямая,12 мес.,жилой дом,первая линия,"на улице, бесплатная",55.781985,49.223267,,4.0,,возможна,,
Торговая площадь,130000,"ул. Татарстан, 10Зеленодольск",https://www.avito.ru/zelenodolsk/kommercheskaya_nedvizhimost/torgovaya_ploschad_7330603911?context=H4sIAAAAAAAA_wE_AMD_YToyOntzOjEzOiJsb2NhbFByaW9yaXR5IjtiOjA7czoxOiJ4IjtzOjE2OiJuazJYdUhMWEdodzJVQjZZIjt9HdiNeT8AAAA,3 дня назад,с улицы,есть,104 м²,1.0,3.4 м,офисная,30 кВт,,прямая,6 мес.,жилой дом,,на улице,55.84820853899151,48.50189983532873,есть,,коммунальные,,,
Свободного назначения,195000,"ул. Тулпар, 9/28Казань",https://www.avito.ru/kazan/kommercheskaya_nedvizhimost/svobodnogo_naznacheniya_7340383093?context=H4sIAAAAAAAA_wE_AMD_YToyOntzOjEzOiJsb2NhbFByaW9yaXR5IjtiOjA7czoxOiJ4IjtzOjE2OiJuazJYdUhMWEdodzJVQjZZIjt9HdiNeT8AAAA,3 дня назад,с улицы,,72 м²,1.0,4.5 м,чистовая,20 кВт,,прямая,11 мес.,жилой дом,,"на улице, бесплатная",55.78612403235208,49.19022587511752,есть,10.0,,,,
Свободного назначения,118000,"Бухарская ул., 32к1Казань",https://www.avito.ru/kazan/kommercheskaya_nedvizhimost/svobodnogo_naznacheniya_7349598293?context=H4sIAAAAAAAA_wE_AMD_YToyOntzOjEzOiJsb2NhbFByaW9yaXR5IjtiOjA7czoxOiJ4IjtzOjE2OiJuazJYdUhMWEdodzJVQjZZIjt9HdiNeT8AAAA,3 дня назад,со двора,,59 м²,1.0,4.5 м,без отделки,10 кВт,,прямая,,жилой дом,,на улице,55.77327347,49.20656586,есть,,,,,
Торговая площадь,135000,"ул. Владимира Ленина, 39Бугульма",https://www.avito.ru/bugulma/kommercheskaya_nedvizhimost/torgovaya_ploschad_7365691396?context=H4sIAAAAAAAA_wE_AMD_YToyOntzOjEzOiJsb2NhbFByaW9yaXR5IjtiOjA7czoxOiJ4IjtzOjE2OiJUaEZCenRxRm5Tb09YUlY1Ijt9tGtraT8AAAA,3 дня назад,с улицы,есть,134.9 м²,1.0,,чистовая,,,субаренда,,торговый центр,,на улице,54.53660965,52.80879211,есть,,,,,
Склад-контейнер,18500,"Ново-Аракчинская ул., 1Казань",https://www.avito.ru/kazan/kommercheskaya_nedvizhimost/sklad-konteyner_7345649202?context=H4sIAAAAAAAA_wE_AMD_YToyOntzOjEzOiJsb2NhbFByaW9yaXR5IjtiOjA7czoxOiJ4IjtzOjE2OiJUaEZCenRxRm5Tb09YUlY1Ijt9tGtraT8AAAA,3 дня назад,с улицы,есть,30 м²,1.0,,,"5 кВт, можно увеличить",,прямая,1 мес.,другой,,на улице,55.81222153,48.93821335,есть,,,,,
"Помещение 68 м² под магазин, салон, студию",108800,"ул. Гарифа Ахунова, 22АКазань",https://www.avito.ru/kazan/kommercheskaya_nedvizhimost/pomeschenie_68_m_pod_magazin_salon_studiyu_7370190591?context=H4sIAAAAAAAA_wE_AMD_YToyOntzOjEzOiJsb2NhbFByaW9yaXR5IjtiOjA7czoxOiJ4IjtzOjE2OiJUaEZCenRxRm5Tb09YUlY1Ijt9tGtraT8AAAA,3 дня назад,с улицы,есть,68 м²,1.0,2.8 м,офисная,10 кВт,центральное,прямая,1 мес.,торговый центр,первая линия,"на улице, бесплатная, подходит для грузового транспорта",55.729133,49.173069,,,,,,
Свободного назначения,40000,"ул. Ирека Миннахметова, 3с. Высокая Гора",https://www.avito.ru/kazan/kommercheskaya_nedvizhimost/svobodnogo_naznacheniya_7352898030?context=H4sIAAAAAAAA_wE_AMD_YToyOntzOjEzOiJsb2NhbFByaW9yaXR5IjtiOjA7czoxOiJ4IjtzOjE2OiJUaEZCenRxRm5Tb09YUlY1Ijt9tGtraT8AAAA,3 дня назад,с улицы,есть,37 м²,1.0,3.9 м,чистовая,"15 кВт, можно увеличить",,прямая,40000 мес.,жилой дом,,"на улице, бесплатная",55.87391663,49.29508591,есть,,,,,
"Свободного назначения, 60 м²",90000,"ул. Четаева, 14Казань",https://www.avito.ru/kazan/kommercheskaya_nedvizhimost/svobodnogo_naznacheniya_60_m_7326986294?context=H4sIAAAAAAAA_wE_AMD_YToyOntzOjEzOiJsb2NhbFByaW9yaXR5IjtiOjA7czoxOiJ4IjtzOjE2OiJUaEZCenRxRm5Tb09YUlY1Ijt9tGtraT8AAAA,3 дня назад,с улицы,есть,60 м²,1.0,3 м,офисная,15 кВт,центральное,прямая,6 мес.,жилой дом,первая линия,"на улице, бесплатная",55.823328,49.14311,,10.0,,возможна,,
Переуступка места,300000,"пр-т Ямашева, 82Казань",https://www.avito.ru/kazan/kommercheskaya_nedvizhimost/pereustupka_mesta_7353754963?context=H4sIAAAAAAAA_wE_AMD_YToyOntzOjEzOiJsb2NhbFByaW9yaXR5IjtiOjA7czoxOiJ4IjtzOjE2OiJUaEZCenRxRm5Tb09YUlY1Ijt9tGtraT8AAAA,3 дня назад,с улицы,есть,100 м²,1.0,3.5 м,чистовая,,,субаренда,6 мес.,жилой дом,,на улице,55.82776642,49.14674759,есть,,,,,
Свободного назначения,1400,"Казанская ул., 1/1Зеленодольск",https://www.avito.ru/zelenodolsk/kommercheskaya_nedvizhimost/svobodnogo_naznacheniya_7387340972?context=H4sIAAAAAAAA_wE_AMD_YToyOntzOjEzOiJsb2NhbFByaW9yaXR5IjtiOjA7czoxOiJ4IjtzOjE2OiJUaEZCenRxRm5Tb09YUlY1Ijt9tGtraT8AAAA,3 дня назад,с улицы,есть,58 м²,1.0,3.2 м,чистовая,15 кВт,,прямая,6 мес.,другой,,на улице,55.847952396010285,48.52884562407965,есть,,,,,
"Склад, 20 м²",500,"ул. Туры, 22Казань",https://www.avito.ru/kazan/kommercheskaya_nedvizhimost/sklad_20_m_7326888826?context=H4sIAAAAAAAA_wE_AMD_YToyOntzOjEzOiJsb2NhbFByaW9yaXR5IjtiOjA7czoxOiJ4IjtzOjE2OiJUaEZCenRxRm5Tb09YUlY1Ijt9tGtraT8AAAA,7 дней назад,с улицы,есть,20 м²,1.0,3 м,без отделки,,,прямая,1 мес.,другой,,"на улице, бесплатная, подходит для грузового транспорта",55.761315,49.246964,есть,,"коммунальные, эксплуатационные",возможна,,
Свободного назначения,44000,"ул. Лукина, 50АКазань",https://www.avito.ru/kazan/kommercheskaya_nedvizhimost/svobodnogo_naznacheniya_7353839922?context=H4sIAAAAAAAA_wE_AMD_YToyOntzOjEzOiJsb2NhbFByaW9yaXR5IjtiOjA7czoxOiJ4IjtzOjE2OiJUaEZCenRxRm5Tb09YUlY1Ijt9tGtraT8AAAA,7 дней назад,с улицы,есть,40 м²,1.0,,офисная,20 кВт,,прямая,,жилой дом,,на улице,55.86932755,49.09748459,есть,,,,,
Свободного назначения,40500,"ул. Родины, 33Ак7Казань",https://www.avito.ru/kazan/kommercheskaya_nedvizhimost/svobodnogo_naznacheniya_7387059256?context=H4sIAAAAAAAA_wE_AMD_YToyOntzOjEzOiJsb2NhbFByaW9yaXR5IjtiOjA7czoxOiJ4IjtzOjE2OiJUaEZCenRxRm5Tb09YUlY1Ijt9tGtraT8AAAA,7 дней назад,с улицы,есть,15 м²,1.0,,чистовая,,,прямая,,торговый центр,,"на улице, бесплатная",55.7597235038993,49.193756435048215,есть,,,,,
"Свободного назначения, 32.5 м²",25000,"ул. Карла Маркса, 44Зеленодольск",https://www.avito.ru/zelenodolsk/kommercheskaya_nedvizhimost/svobodnogo_naznacheniya_32.5_m_7330171321?context=H4sIAAAAAAAA_wE_AMD_YToyOntzOjEzOiJsb2NhbFByaW9yaXR5IjtiOjA7czoxOiJ4IjtzOjE2OiJUaEZCenRxRm5Tb09YUlY1Ijt9tGtraT8AAAA,7 дней назад,с улицы,есть,32.5 м²,1.0,2.7 м,офисная,380 кВт,центральное,прямая,11 мес.,жилой дом,первая линия,"на улице, бесплатная, подходит для грузового транспорта",55.850434,48.511136,,7.0,,возможна,,
Свободного назначения,46000,"ул. Аметьевская Магистраль, 16к2Казань",https://www.avito.ru/kazan/kommercheskaya_nedvizhimost/svobodnogo_naznacheniya_7346922751?context=H4sIAAAAAAAA_wE_AMD_YToyOntzOjEzOiJsb2NhbFByaW9yaXR5IjtiOjA7czoxOiJ4IjtzOjE2OiJUaEZCenRxRm5Tb09YUlY1Ijt9tGtraT8AAAA,7 дней назад,с улицы,есть,23 м²,1.0,4 м,чистовая,,,прямая,6 мес.,жилой дом,,"на улице, бесплатная",55.76802444,49.17382431,есть,,,,,
"Свободного назначения, 28 м²",20000,"ул. Фатыха Амирхана, 20АКазань",https://www.avito.ru/kazan/kommercheskaya_nedvizhimost/svobodnogo_naznacheniya_28_m_7370344044?context=H4sIAAAAAAAA_wE_AMD_YToyOntzOjEzOiJsb2NhbFByaW9yaXR5IjtiOjA7czoxOiJ4IjtzOjE2OiJUaEZCenRxRm5Tb09YUlY1Ijt9tGtraT8AAAA,7 дней назад,с улицы,,28 м²,1.0,,офисная,,,прямая,3 мес.,административное здание,,на улице,55.83803177,49.13640976,есть,,,,,
"Торговая площадь, 120 м²",2000,"ул. Сибгата Хакима, 62Казань",https://www.avito.ru/kazan/kommercheskaya_nedvizhimost/torgovaya_ploschad_120_m_7343390109?context=H4sIAAAAAAAA_wE_AMD_YToyOntzOjEzOiJsb2NhbFByaW9yaXR5IjtiOjA7czoxOiJ4IjtzOjE2OiJUaEZCenRxRm5Tb09YUlY1Ijt9tGtraT8AAAA,7 дней назад,с улицы,есть,120 м²,1.0,4 м,без отделки,40 кВт,центральное,субаренда,18 мес.,другой,первая линия,"на улице, бесплатная, подходит для грузового транспорта",55.815079,49.143865,,1.0,,,,
Сдаётся помещение 147 кв. на Чулман,1700,"пр-т Чулман, 81Набережные Челны",https://www.avito.ru/naberezhnye_chelny/kommercheskaya_nedvizhimost/sdaetsya_pomeschenie_147_kv._na_chulman_7346026608?context=H4sIAAAAAAAA_wE_AMD_YToyOntzOjEzOiJsb2NhbFByaW9yaXR5IjtiOjA7czoxOiJ4IjtzOjE2OiJUaEZCenRxRm5Tb09YUlY1Ijt9tGtraT8AAAA,7 дней назад,с улицы,,147 м²,1.0,,чистовая,,,прямая,,жилой дом,,нет,55.744014,52.379426,,,,,,
"Первая линия, доступ 24/7, Зорге,70",2000,"ул. Рихарда Зорге, 70Казань",https://www.avito.ru/kazan/kommercheskaya_nedvizhimost/pervaya_liniya_dostup_247_zorge70_7346856124?context=H4sIAAAAAAAA_wE_AMD_YToyOntzOjEzOiJsb2NhbFByaW9yaXR5IjtiOjA7czoxOiJ4IjtzOjE2OiJUaEZCenRxRm5Tb09YUlY1Ijt9tGtraT8AAAA,7 дней назад,с улицы,,117 м²,1.0,4 м,чистовая,,,прямая,11 мес.,другой,,на улице,55.74668884,49.21285629,есть,,,,,
Амирхана 1 линия трафиковое,176800,"ул. Фатыха Амирхана, 18/41Казань",https://www.avito.ru/kazan/kommercheskaya_nedvizhimost/amirhana_1_liniya_trafikovoe_7352342939?context=H4sIAAAAAAAA_wE_AMD_YToyOntzOjEzOiJsb2NhbFByaW9yaXR5IjtiOjA7czoxOiJ4IjtzOjE2OiJUaEZCenRxRm5Tb09YUlY1Ijt9tGtraT8AAAA,7 дней назад,с улицы,,104 м²,1.0,3.2 м,офисная,30 кВт,,прямая,,жилой дом,первая линия,на улице,55.836651,49.134693,,,,,,
Торговая площадь,1200,"пр-т Мира, 110Нижнекамск",https://www.avito.ru/nizhnekamsk/kommercheskaya_nedvizhimost/torgovaya_ploschad_7349255581?context=H4sIAAAAAAAA_wE_AMD_YToyOntzOjEzOiJsb2NhbFByaW9yaXR5IjtiOjA7czoxOiJ4IjtzOjE2OiJUaEZCenRxRm5Tb09YUlY1Ijt9tGtraT8AAAA,7 дней назад,с улицы,есть,80 м²,1.0,4 м,чистовая,,,прямая,,торговый центр,,"на улице, бесплатная",55.63238907,51.78679657,есть,,,,,
"Свободного назначения, 145 м²",108750,"Беломорская ул., 270Казань",https://www.avito.ru/kazan/kommercheskaya_nedvizhimost/svobodnogo_naznacheniya_145_m_7345298002?context=H4sIAAAAAAAA_wE_AMD_YToyOntzOjEzOiJsb2NhbFByaW9yaXR5IjtiOjA7czoxOiJ4IjtzOjE2OiJUaEZCenRxRm5Tb09YUlY1Ijt9tGtraT8AAAA,7 дней назад,с улицы,есть,145 м²,1.0,4.9 м,чистовая,,центральное,прямая,,другой,первая линия,"на улице, бесплатная",55.867192,49.002865,,2.0,,,,
"ПСН / торговое помещение / общепит 18,9 кв.м",85000,"ул. Достоевского, 53/4Казань",https://www.avito.ru/kazan/kommercheskaya_nedvizhimost/psn_torgovoe_pomeschenie_obschepit_189_kv.m_7340574710?context=H4sIAAAAAAAA_wE_AMD_YToyOntzOjEzOiJsb2NhbFByaW9yaXR5IjtiOjA7czoxOiJ4IjtzOjE2OiJUaEZCenRxRm5Tb09YUlY1Ijt9tGtraT8AAAA,7 дней назад,с улицы,есть,18.9 м²,1.0,3 м,чистовая,10 кВт,центральное,субаренда,11 мес.,жилой дом,первая линия,на улице,55.789097,49.151348,,,,,,
Склад,77000,"ул. Владимира Кулагина, 25Казань",https://www.avito.ru/kazan/kommercheskaya_nedvizhimost/sklad_7340386819?context=H4sIAAAAAAAA_wE_AMD_YToyOntzOjEzOiJsb2NhbFByaW9yaXR5IjtiOjA7czoxOiJ4IjtzOjE2OiJUaEZCenRxRm5Tb09YUlY1Ijt9tGtraT8AAAA,7 дней назад,со двора,есть,110 м²,1.0,3.4 м,,10 кВт,,прямая,11 мес.,другой,,"на улице, бесплатная",55.74037933,49.11117554,есть,5.0,,,,B
"Торговая площадь, 57 м²",114000,"ул. Галии Кайбицкой, 1Казань",https://www.avito.ru/kazan/kommercheskaya_nedvizhimost/torgovaya_ploschad_57_m_7343660978?context=H4sIAAAAAAAA_wE_AMD_YToyOntzOjEzOiJsb2NhbFByaW9yaXR5IjtiOjA7czoxOiJ4IjtzOjE2OiJUaEZCenRxRm5Tb09YUlY1Ijt9tGtraT8AAAA,7 дней назад,с улицы,есть,57 м²,1.0,3 м,чистовая,15 кВт,центральное,прямая,11 мес.,жилой дом,первая линия,на улице,55.779838,49.231666,,,,,,
"Свободного назначения, 102 м²",700,"ул. Ленина, 1ААльметьевск",https://www.avito.ru/almetevsk/kommercheskaya_nedvizhimost/svobodnogo_naznacheniya_102_m_7343739675?context=H4sIAAAAAAAA_wE_AMD_YToyOntzOjEzOiJsb2NhbFByaW9yaXR5IjtiOjA7czoxOiJ4IjtzOjE2OiJUaEZCenRxRm5Tb09YUlY1Ijt9tGtraT8AAAA,7 дней назад,с улицы,,102 м²,1.0,3 м,чистовая,,центральное,субаренда,11 мес.,торговый центр,первая линия,"на улице, бесплатная",54.902615,52.315268,,,"коммунальные, эксплуатационные",,,
"Первая линия, доступ 24/7, Декабристов,184",2000,"ул. Декабристов, 184Казань",https://www.avito.ru/kazan/kommercheskaya_nedvizhimost/pervaya_liniya_dostup_247_dekabristov184_7346961534?context=H4sIAAAAAAAA_wE_AMD_YToyOntzOjEzOiJsb2NhbFByaW9yaXR5IjtiOjA7czoxOiJ4IjtzOjE2OiJUaEZCenRxRm5Tb09YUlY1Ijt9tGtraT8AAAA,7 дней назад,с улицы,есть,65 м²,1.0,3.5 м,чистовая,,,прямая,11 мес.,другой,,на улице,55.84112549,49.08293152,есть,,,,,
"Первая линия, доступ 24/7, Беломорская,69Ак1",1000,"Беломорская ул., 69Ак1Казань",https://www.avito.ru/kazan/kommercheskaya_nedvizhimost/pervaya_liniya_dostup_247_belomorskaya69ak1_7346965996?context=H4sIAAAAAAAA_wE_AMD_YToyOntzOjEzOiJsb2NhbFByaW9yaXR5IjtiOjA7czoxOiJ4IjtzOjE2OiJUaEZCenRxRm5Tb09YUlY1Ijt9tGtraT8AAAA,7 дней назад,с улицы,есть,100 м²,1.0,7 м,чистовая,50 кВт,,прямая,11 мес.,другой,,на улице,55.86565781,49.02928543,,,,,,
"Первая линия, доступ 24/7, Тансык,5",1500,"ул. Тансык, 5Казань",https://www.avito.ru/kazan/kommercheskaya_nedvizhimost/pervaya_liniya_dostup_247_tansyk5_7346265889?context=H4sIAAAAAAAA_wE_AMD_YToyOntzOjEzOiJsb2NhbFByaW9yaXR5IjtiOjA7czoxOiJ4IjtzOjE2OiJUaEZCenRxRm5Tb09YUlY1Ijt9tGtraT8AAAA,7 дней назад,с улицы,есть,83.1 м²,1.0,3.5 м,чистовая,,,прямая,11 мес.,другой,,на улице,55.86766052,48.88011932,есть,,,,,
"Отдельный вход, доступ 24/7, Фурманова,25",800,"ул. Фурманова, 25Казань",https://www.avito.ru/kazan/kommercheskaya_nedvizhimost/otdelnyy_vhod_dostup_247_furmanova25_7346948145?context=H4sIAAAAAAAA_wE_AMD_YToyOntzOjEzOiJsb2NhbFByaW9yaXR5IjtiOjA7czoxOiJ4IjtzOjE2OiJUaEZCenRxRm5Tb09YUlY1Ijt9tGtraT8AAAA,7 дней назад,с улицы,есть,50 м²,1.0,3 м,чистовая,,,прямая,11 мес.,другой,,на улице,55.83560944,49.0867157,,,,,,
Аренда торговых помещений от 70 кв.м. в Пестрецах,140000,"Центральная ул., 40Ас. Старое Шигалеево",https://www.avito.ru/kazan/kommercheskaya_nedvizhimost/arenda_torgovyh_pomescheniy_ot_70_kv.m._v_pestretsah_7352970696?context=H4sIAAAAAAAA_wE_AMD_YToyOntzOjEzOiJsb2NhbFByaW9yaXR5IjtiOjA7czoxOiJ4IjtzOjE2OiJUaEZCenRxRm5Tb09YUlY1Ijt9tGtraT8AAAA,7 дней назад,с улицы,,70 м²,1.0,,чистовая,,,прямая,,административное здание,,на улице,55.823838,49.503469,,,,,,
Торговые площади 53 м² и 200 м²,2500,"пр-т Чулман, 89/57Набережные Челны",https://www.avito.ru/naberezhnye_chelny/kommercheskaya_nedvizhimost/torgovye_ploschadi_53_m_i_200_m_7352567891?context=H4sIAAAAAAAA_wE_AMD_YToyOntzOjEzOiJsb2NhbFByaW9yaXR5IjtiOjA7czoxOiJ4IjtzOjE2OiJUaEZCenRxRm5Tb09YUlY1Ijt9tGtraT8AAAA,7 дней назад,с улицы,,53 м²,1.0,,без отделки,,,прямая,,торговый центр,первая линия,"на улице, бесплатная",55.74527,52.379713,,,эксплуатационные,,,
Свободного назначения,800,"2-я Тихорецкая ул., 10АКазань",https://www.avito.ru/kazan/kommercheskaya_nedvizhimost/svobodnogo_naznacheniya_7332423545?context=H4sIAAAAAAAA_wE_AMD_YToyOntzOjEzOiJsb2NhbFByaW9yaXR5IjtiOjA7czoxOiJ4IjtzOjE2OiJUaEZCenRxRm5Tb09YUlY1Ijt9tGtraT8AAAA,7 дней назад,с улицы,,100 м²,1.0,,чистовая,,,прямая,1 мес.,другой,,на улице,55.73132617100531,49.12188803122521,есть,,,,,
Торговая площадь,75000,"Интернациональная ул., 13ДКазань",https://www.avito.ru/kazan/kommercheskaya_nedvizhimost/torgovaya_ploschad_7345811169?context=H4sIAAAAAAAA_wE_AMD_YToyOntzOjEzOiJsb2NhbFByaW9yaXR5IjtiOjA7czoxOiJ4IjtzOjE2OiJUaEZCenRxRm5Tb09YUlY1Ijt9tGtraT8AAAA,7 дней назад,с улицы,есть,30 м²,1.0,2.5 м,чистовая,15 кВт,,прямая,6 мес.,торговый центр,,"на улице, бесплатная",55.80962915810474,49.26648530040103,есть,7.0,,,,
Свободного назначения,900,"Набережночелнинский пр-т, 17А/1Набережные Челны",https://www.avito.ru/naberezhnye_chelny/kommercheskaya_nedvizhimost/svobodnogo_naznacheniya_7339152227?context=H4sIAAAAAAAA_wE_AMD_YToyOntzOjEzOiJsb2NhbFByaW9yaXR5IjtiOjA7czoxOiJ4IjtzOjE2OiJUaEZCenRxRm5Tb09YUlY1Ijt9tGtraT8AAAA,7 дней назад,с улицы,есть,114 м²,1.0,3 м,чистовая,14 кВт,,прямая,11 мес.,административное здание,,"на улице, бесплатная",55.70314841448136,52.33227930188022,есть,,,,,
Торговая площадь 1.4 м²,3000,"ул. Профессора Камая, 10к2Казань",https://www.avito.ru/kazan/kommercheskaya_nedvizhimost/torgovaya_ploschad_1.4_m_7326083235?context=H4sIAAAAAAAA_wE_AMD_YToyOntzOjEzOiJsb2NhbFByaW9yaXR5IjtiOjA7czoxOiJ4IjtzOjE2OiJUaEZCenRxRm5Tb09YUlY1Ijt9tGtraT8AAAA,7 дней назад,с улицы,есть,1.4 м²,1.0,3.1 м,чистовая,"10 кВт, можно увеличить",центральное,прямая,11 мес.,жилой дом,,"на улице, бесплатная",55.749167,49.183903,есть,,коммунальные,,,
"Г. Казань, аренда торгового места 18 м²",36000,"ул. Декабристов, 129Казань",https://www.avito.ru/kazan/kommercheskaya_nedvizhimost/g._kazan_arenda_torgovogo_mesta_18_m_7355495096?context=H4sIAAAAAAAA_wE_AMD_YToyOntzOjEzOiJsb2NhbFByaW9yaXR5IjtiOjA7czoxOiJ4IjtzOjE2OiJUaEZCenRxRm5Tb09YUlY1Ijt9tGtraT8AAAA,7 дней назад,с улицы,,18 м²,1.0,,чистовая,,центральное,прямая,11 мес.,жилой дом,первая линия,"на улице, бесплатная",55.826761,49.083426,,,эксплуатационные,,,
"Свободного назначения, 80м²",56000,"ул. Анвара Ягофарова, 30ББугульма",https://www.avito.ru/bugulma/kommercheskaya_nedvizhimost/svobodnogo_naznacheniya_80m_7345074994?context=H4sIAAAAAAAA_wE_AMD_YToyOntzOjEzOiJsb2NhbFByaW9yaXR5IjtiOjA7czoxOiJ4IjtzOjE2OiJUaEZCenRxRm5Tb09YUlY1Ijt9tGtraT8AAAA,7 дней назад,с улицы,есть,80 м²,1.0,3 м,чистовая,"15 кВт, можно увеличить",автономное,прямая,12 мес.,другой,первая линия,"на улице, бесплатная, подходит для грузового транспорта",54.52355,52.795768,есть,8.0,,,,
Торговый павильон пос.Новониколаевский,50000,"Центральная ул., 26пос. Новониколаевский",https://www.avito.ru/kazan/kommercheskaya_nedvizhimost/torgovyy_pavilon_pos.novonikolaevskiy_7303335709?context=H4sIAAAAAAAA_wE_AMD_YToyOntzOjEzOiJsb2NhbFByaW9yaXR5IjtiOjA7czoxOiJ4IjtzOjE2OiJUaEZCenRxRm5Tb09YUlY1Ijt9tGtraT8AAAA,7 дней назад,с улицы,есть,28 м²,1.0,,чистовая,,,прямая,,другой,,"на улице, бесплатная",55.895933,48.963178,есть,,,,,
Торговая площадь,1200,"ул. Ш. Марджани, 17с. Большая Атня",https://www.avito.ru/bolshaya_atnya/kommercheskaya_nedvizhimost/torgovaya_ploschad_7344248698?context=H4sIAAAAAAAA_wE_AMD_YToyOntzOjEzOiJsb2NhbFByaW9yaXR5IjtiOjA7czoxOiJ4IjtzOjE2OiJUaEZCenRxRm5Tb09YUlY1Ijt9tGtraT8AAAA,7 дней назад,с улицы,,93 м²,1.0,,чистовая,,,прямая,,другой,,на улице,56.24836341873381,49.43687166115879,есть,,,,,
Теплый склад 22кв.м с отдельным входом,12400,"пр-т Строителей, 6АНижнекамск",https://www.avito.ru/nizhnekamsk/kommercheskaya_nedvizhimost/teplyy_sklad_22kv.m_s_otdelnym_vhodom_7331849100?context=H4sIAAAAAAAA_wE_AMD_YToyOntzOjEzOiJsb2NhbFByaW9yaXR5IjtiOjA7czoxOiJ4IjtzOjE2OiJUaEZCenRxRm5Tb09YUlY1Ijt9tGtraT8AAAA,7 дней назад,со двора,есть,22.6 м²,1.0,2.7 м,чистовая,5 кВт,,прямая,1 мес.,административное здание,,"на улице, бесплатная",55.62729645,51.81946182,есть,40.0,"коммунальные, эксплуатационные",,,
Теплые и холодные склады в центре от 85м²,600,"Портовая ул., 27Казань",https://www.avito.ru/kazan/kommercheskaya_nedvizhimost/teplye_i_holodnye_sklady_v_tsentre_ot_85m_7353410351?context=H4sIAAAAAAAA_wE_AMD_YToyOntzOjEzOiJsb2NhbFByaW9yaXR5IjtiOjA7czoxOiJ4IjtzOjE2OiJUaEZCenRxRm5Tb09YUlY1Ijt9tGtraT8AAAA,7 дней назад,со двора,,85 м²,1.0,,чистовая,,,прямая,,другой,,на улице,55.760256,49.081171,,,,,,
"Первая линия, любая площадь, Дементьева,72Б",1500,"ул. Дементьева, 72БКазань",https://www.avito.ru/kazan/kommercheskaya_nedvizhimost/pervaya_liniya_lyubaya_ploschad_dementeva72b_7346997626?context=H4sIAAAAAAAA_wE_AMD_YToyOntzOjEzOiJsb2NhbFByaW9yaXR5IjtiOjA7czoxOiJ4IjtzOjE2OiJUaEZCenRxRm5Tb09YUlY1Ijt9tGtraT8AAAA,7 дней назад,с улицы,,50 м²,1.0,5 м,чистовая,,,прямая,11 мес.,другой,,на улице,55.86252975,49.10920715,,,,,,
Свободного назначения,50000,"Центральная ул., 1Бс. Кощаково",https://www.avito.ru/kazan/kommercheskaya_nedvizhimost/svobodnogo_naznacheniya_7337736726?context=H4sIAAAAAAAA_wE_AMD_YToyOntzOjEzOiJsb2NhbFByaW9yaXR5IjtiOjA7czoxOiJ4IjtzOjE2OiJUaEZCenRxRm5Tb09YUlY1Ijt9tGtraT8AAAA,1 неделю назад,с улицы,есть,120 м²,1.0,5 м,без отделки,380 кВт,,прямая,1 мес.,другой,,"на улице, бесплатная, подходит для грузового транспорта",55.79845428,49.4084549,есть,,"коммунальные, эксплуатационные",,,
Офис,1200,"ул. Амирхана Еники, 10Казань",https://www.avito.ru/kazan/kommercheskaya_nedvizhimost/ofis_7327498750?context=H4sIAAAAAAAA_wE_AMD_YToyOntzOjEzOiJsb2NhbFByaW9yaXR5IjtiOjA7czoxOiJ4IjtzOjE2OiJUaEZCenRxRm5Tb09YUlY1Ijt9tGtraT8AAAA,1 неделю назад,,,82 м²,1.0,4 м,чистовая,,,прямая,11 мес.,жилой дом,,"на улице, бесплатная",55.78248596,49.15362167,есть,20.0,,возможна,кабинетная,
"Торговая площадь, 43.5 м²",40000,"Детский пр., 8Казань",https://www.avito.ru/kazan/kommercheskaya_nedvizhimost/torgovaya_ploschad_43.5_m_7329968919?context=H4sIAAAAAAAA_wE_AMD_YToyOntzOjEzOiJsb2NhbFByaW9yaXR5IjtiOjA7czoxOiJ4IjtzOjE2OiJUaEZCenRxRm5Tb09YUlY1Ijt9tGtraT8AAAA,1 неделю назад,с улицы,есть,43.5 м²,1.0,4 м,чистовая,220 кВт,центральное,прямая,11 мес.,жилой дом,вторая линия и дальше,"на улице, бесплатная",55.678352,49.199794,,1.0,"коммунальные, эксплуатационные",,,
Торговая площадь,950,"пр-т Мира, 84ВНижнекамск",https://www.avito.ru/nizhnekamsk/kommercheskaya_nedvizhimost/torgovaya_ploschad_7345184210?context=H4sIAAAAAAAA_wE_AMD_YToyOntzOjEzOiJsb2NhbFByaW9yaXR5IjtiOjA7czoxOiJ4IjtzOjE2OiJUaEZCenRxRm5Tb09YUlY1Ijt9tGtraT8AAAA,1 неделю назад,с улицы,есть,30 м²,1.0,3 м,чистовая,45 кВт,,прямая,,другой,,"на улице, бесплатная, подходит для грузового транспорта",55.63998448481336,51.79253685896964,есть,,,возможна,,
"Сдам помещение свободного назначения, 122 м²",1100,"ул. Академика Королёва, 2/1Набережные Челны",https://www.avito.ru/naberezhnye_chelny/kommercheskaya_nedvizhimost/sdam_pomeschenie_svobodnogo_naznacheniya_122_m_7337240263?context=H4sIAAAAAAAA_wE_AMD_YToyOntzOjEzOiJsb2NhbFByaW9yaXR5IjtiOjA7czoxOiJ4IjtzOjE2OiJUaEZCenRxRm5Tb09YUlY1Ijt9tGtraT8AAAA,1 неделю назад,с улицы,есть,122 м²,1.0,4 м,офисная,,,прямая,11 мес.,торговый центр,,"на улице, бесплатная",55.713583,52.397724,есть,,,,,
"Свободного назначения, 51.3 м²",55000,"ул. Шуртыгина, 32/22Казань",https://www.avito.ru/kazan/kommercheskaya_nedvizhimost/svobodnogo_naznacheniya_51.3_m_7349433980?context=H4sIAAAAAAAA_wE_AMD_YToyOntzOjEzOiJsb2NhbFByaW9yaXR5IjtiOjA7czoxOiJ4IjtzOjE2OiJUaEZCenRxRm5Tb09YUlY1Ijt9tGtraT8AAAA,1 неделю назад,с улицы,есть,51.3 м²,1.0,3 м,офисная,15 кВт,,прямая,11 мес.,жилой дом,,на улице,55.787715,49.174623,есть,,коммунальные,,,
Свободного назначения,1500,"Приволжский район, жилой комплекс Станция Спортивная, 2.2Казань",https://www.avito.ru/kazan/kommercheskaya_nedvizhimost/svobodnogo_naznacheniya_7337923209?context=H4sIAAAAAAAA_wE_AMD_YToyOntzOjEzOiJsb2NhbFByaW9yaXR5IjtiOjA7czoxOiJ4IjtzOjE2OiJUaEZCenRxRm5Tb09YUlY1Ijt9tGtraT8AAAA,1 неделю назад,с улицы,,67 м²,1.0,,без отделки,,,прямая,11 мес.,жилой дом,,на улице,55.67878860318195,49.20337639488717,есть,,,,,
Торговая площадь 90,155000,"Даурская ул., 44ВКазань",https://www.avito.ru/kazan/kommercheskaya_nedvizhimost/torgovaya_ploschad_90_7345709363?context=H4sIAAAAAAAA_wE_AMD_YToyOntzOjEzOiJsb2NhbFByaW9yaXR5IjtiOjA7czoxOiJ4IjtzOjE2OiJUaEZCenRxRm5Tb09YUlY1Ijt9tGtraT8AAAA,1 неделю назад,с улицы,,90 м²,1.0,3.5 м,чистовая,15 кВт,,прямая,,жилой дом,,на улице,55.76684189,49.18641663,есть,,,,,
"Свободного назначения, 134.2 м²",1600,"Советский район, мкр-н Азино-1, ул. Закиева, 3АКазань",https://www.avito.ru/kazan/kommercheskaya_nedvizhimost/svobodnogo_naznacheniya_134.2_m_7328437022?context=H4sIAAAAAAAA_wE_AMD_YToyOntzOjEzOiJsb2NhbFByaW9yaXR5IjtiOjA7czoxOiJ4IjtzOjE2OiJUaEZCenRxRm5Tb09YUlY1Ijt9tGtraT8AAAA,1 неделю назад,с улицы,есть,134.2 м²,1.0,4.3 м,чистовая,"20 кВт, можно увеличить",автономное,прямая,11 мес.,административное здание,первая линия,"на улице, бесплатная",55.776689,49.222539,,,,,,
Торговая площадь 134,2500,"ул. Александра Курынова, 5к2Казань",https://www.avito.ru/kazan/kommercheskaya_nedvizhimost/torgovaya_ploschad_134_7345584311?context=H4sIAAAAAAAA_wE_AMD_YToyOntzOjEzOiJsb2NhbFByaW9yaXR5IjtiOjA7czoxOiJ4IjtzOjE2OiJUaEZCenRxRm5Tb09YUlY1Ijt9tGtraT8AAAA,1 неделю назад,с улицы,,134 м²,1.0,4.5 м,без отделки,15 кВт,,прямая,,жилой дом,,на улице,55.79935837,49.24076462,есть,,,,,
"Свободного назначения71м2,офис,торговая площадь",120000,"ул. Липатова, 4Казань",https://www.avito.ru/kazan/kommercheskaya_nedvizhimost/svobodnogo_naznacheniya71m2ofistorgovaya_ploschad_7340860349?context=H4sIAAAAAAAA_wE_AMD_YToyOntzOjEzOiJsb2NhbFByaW9yaXR5IjtiOjA7czoxOiJ4IjtzOjE2OiJKclZOUk1YSWt5b0R4d09FIjt98NnjjD8AAAA,1 неделю назад,с улицы,есть,71 м²,1.0,3.4 м,офисная,15 кВт,,прямая,,жилой дом,,"на улице, бесплатная, подходит для грузового транспорта",55.872526,49.224462,есть,15.0,,,,
"Торговая площадь, Сахарова 22А",45000,"ул. Академика Сахарова, 22АКазань",https://www.avito.ru/kazan/kommercheskaya_nedvizhimost/torgovaya_ploschad_saharova_22a_7341905721?context=H4sIAAAAAAAA_wE_AMD_YToyOntzOjEzOiJsb2NhbFByaW9yaXR5IjtiOjA7czoxOiJ4IjtzOjE2OiJKclZOUk1YSWt5b0R4d09FIjt98NnjjD8AAAA,1 неделю назад,с улицы,есть,15 м²,1.0,,чистовая,,,прямая,12 мес.,другой,,"на улице, бесплатная",55.78281021,49.22410965,есть,,,,,
"Свободного назначения, 87.1 м²",200000,"ул. Горьковское Шоссе, 2АКазань",https://www.avito.ru/kazan/kommercheskaya_nedvizhimost/svobodnogo_naznacheniya_87.1_m_7334783451?context=H4sIAAAAAAAA_wE_AMD_YToyOntzOjEzOiJsb2NhbFByaW9yaXR5IjtiOjA7czoxOiJ4IjtzOjE2OiJKclZOUk1YSWt5b0R4d09FIjt98NnjjD8AAAA,1 неделю назад,с улицы,есть,87.1 м²,1.0,3.5 м,офисная,"49 кВт, можно увеличить",автономное,прямая,2 мес.,административное здание,первая линия,"на улице, бесплатная",55.825345,49.04169,,10.0,,,,
"Свободного назначения, 15 м²",5000,"Дорожный пер., 7Казань",https://www.avito.ru/kazan/kommercheskaya_nedvizhimost/svobodnogo_naznacheniya_15_m_7347773523?context=H4sIAAAAAAAA_wE_AMD_YToyOntzOjEzOiJsb2NhbFByaW9yaXR5IjtiOjA7czoxOiJ4IjtzOjE2OiJKclZOUk1YSWt5b0R4d09FIjt98NnjjD8AAAA,1 неделю назад,со двора,есть,15 м²,1.0,2.6 м,чистовая,0 кВт,нет,прямая,2 мес.,другой,вторая линия и дальше,"на улице, бесплатная, подходит для грузового транспорта",55.802361,49.214966,,1.0,"коммунальные, эксплуатационные",,,
Свободного назначения,110000,"Вахитовский район, ул. Калинина, 60Казань",https://www.avito.ru/kazan/kommercheskaya_nedvizhimost/svobodnogo_naznacheniya_7340282166?context=H4sIAAAAAAAA_wE_AMD_YToyOntzOjEzOiJsb2NhbFByaW9yaXR5IjtiOjA7czoxOiJ4IjtzOjE2OiJKclZOUk1YSWt5b0R4d09FIjt98NnjjD8AAAA,1 неделю назад,с улицы,есть,80 м²,1.0,3 м,чистовая,,,прямая,6 мес.,жилой дом,,"на улице, бесплатная, подходит для грузового транспорта",55.78237915,49.14713287,есть,2.0,"коммунальные, эксплуатационные",,,
"Свободного назначения, 51.4 м²",75000,"ул. Чехова, 29Альметьевск",https://www.avito.ru/almetevsk/kommercheskaya_nedvizhimost/svobodnogo_naznacheniya_51.4_m_7355811547?context=H4sIAAAAAAAA_wE_AMD_YToyOntzOjEzOiJsb2NhbFByaW9yaXR5IjtiOjA7czoxOiJ4IjtzOjE2OiJKclZOUk1YSWt5b0R4d09FIjt98NnjjD8AAAA,1 неделю назад,с улицы,есть,51.4 м²,1.0,2.7 м,чистовая,,,прямая,,жилой дом,,"на улице, бесплатная, подходит для грузового транспорта",54.906585,52.305557,есть,,,,,
Торговая площадь,15000,"ул. Ленина, 9Азнакаево",https://www.avito.ru/aznakaevo/kommercheskaya_nedvizhimost/torgovaya_ploschad_7333939351?context=H4sIAAAAAAAA_wE_AMD_YToyOntzOjEzOiJsb2NhbFByaW9yaXR5IjtiOjA7czoxOiJ4IjtzOjE2OiJKclZOUk1YSWt5b0R4d09FIjt98NnjjD8AAAA,1 неделю назад,с улицы,есть,16 м²,1.0,3 м,офисная,,,прямая,,жилой дом,,"на улице, бесплатная, подходит для грузового транспорта",54.85891724,53.08082962,есть,,,,,
"Нижнекамск, проспект Вахитова, 47, 48 м²",55000,"пр-т Вахитова, 47Нижнекамск",https://www.avito.ru/nizhnekamsk/kommercheskaya_nedvizhimost/nizhnekamsk_prospekt_vahitova_47_48_m_7344995248?context=H4sIAAAAAAAA_wE_AMD_YToyOntzOjEzOiJsb2NhbFByaW9yaXR5IjtiOjA7czoxOiJ4IjtzOjE2OiJKclZOUk1YSWt5b0R4d09FIjt98NnjjD8AAAA,1 неделю назад,с улицы,есть,48 м²,1.0,,без отделки,,центральное,субаренда,11 мес.,торговый центр,,на улице,55.651643,51.821033,,,,,,
"Помещение 101.5 м² под торговлю,офис, бьюти коворк",162400,"ул. Гарифа Ахунова, 22АКазань",https://www.avito.ru/kazan/kommercheskaya_nedvizhimost/pomeschenie_101.5_m_pod_torgovlyuofis_byuti_kovork_7344959219?context=H4sIAAAAAAAA_wE_AMD_YToyOntzOjEzOiJsb2NhbFByaW9yaXR5IjtiOjA7czoxOiJ4IjtzOjE2OiJKclZOUk1YSWt5b0R4d09FIjt98NnjjD8AAAA,1 неделю назад,с улицы,есть,101.5 м²,1.0,2.8 м,офисная,10 кВт,,прямая,11 мес.,жилой дом,первая линия,"на улице, бесплатная, подходит для грузового транспорта",55.729133,49.173069,,,,,,
"Казань Братьев Касимовых 22/7, 3 м²",11000,"ул. Братьев Касимовых, 22/7Казань",https://www.avito.ru/kazan/kommercheskaya_nedvizhimost/kazan_bratev_kasimovyh_227_3_m_7344494435?context=H4sIAAAAAAAA_wE_AMD_YToyOntzOjEzOiJsb2NhbFByaW9yaXR5IjtiOjA7czoxOiJ4IjtzOjE2OiJKclZOUk1YSWt5b0R4d09FIjt98NnjjD8AAAA,1 неделю назад,с улицы,,3 м²,1.0,3 м,чистовая,"1 кВт, можно увеличить",,прямая,11 мес.,торговый центр,первая линия,"на улице, бесплатная",55.756143,49.190487,,,,,,
Свободного назначения,93000,"ул. Сибирский Тракт, 24/7Казань",https://www.avito.ru/kazan/kommercheskaya_nedvizhimost/svobodnogo_naznacheniya_7304560712?context=H4sIAAAAAAAA_wE_AMD_YToyOntzOjEzOiJsb2NhbFByaW9yaXR5IjtiOjA7czoxOiJ4IjtzOjE2OiJKclZOUk1YSWt5b0R4d09FIjt98NnjjD8AAAA,1 неделю назад,с улицы,есть,46.5 м²,1.0,2.5 м,офисная,220 кВт,,прямая,11 мес.,жилой дом,,нет,55.8126297,49.18147659,есть,,,,,
"Казань, Советский район, посёлок Дербышки, улица М",16000,"Советский район, посёлок Дербышки, ул. Мира, 59Казань",https://www.avito.ru/kazan/kommercheskaya_nedvizhimost/kazan_sovetskiy_rayon_poselok_derbyshki_ulitsa_m_7344787289?context=H4sIAAAAAAAA_wE_AMD_YToyOntzOjEzOiJsb2NhbFByaW9yaXR5IjtiOjA7czoxOiJ4IjtzOjE2OiJKclZOUk1YSWt5b0R4d09FIjt98NnjjD8AAAA,1 неделю назад,с улицы,,29 м²,1.0,3 м,чистовая,"5 кВт, можно увеличить",,прямая,11 мес.,торговый центр,первая линия,"на улице, бесплатная",55.859776,49.215739,,,,,,
"Сдаю помещение в центре, Castura Town",4500,"ул. Островского, 116Казань",https://www.avito.ru/kazan/kommercheskaya_nedvizhimost/sdayu_pomeschenie_v_tsentre_castura_town_7314690889?context=H4sIAAAAAAAA_wE_AMD_YToyOntzOjEzOiJsb2NhbFByaW9yaXR5IjtiOjA7czoxOiJ4IjtzOjE2OiJKclZOUk1YSWt5b0R4d09FIjt98NnjjD8AAAA,1 неделю назад,с улицы,,87.8 м²,1.0,4.2 м,офисная,,,прямая,,жилой дом,,нет,55.776436,49.139544,,,,,,
Аренда помещения под производство или теплый склад,41020,"2-я Гаражная ул., 3Казань",https://www.avito.ru/kazan/kommercheskaya_nedvizhimost/arenda_pomescheniya_pod_proizvodstvo_ili_teplyy_sklad_7355196406?context=H4sIAAAAAAAA_wE_AMD_YToyOntzOjEzOiJsb2NhbFByaW9yaXR5IjtiOjA7czoxOiJ4IjtzOjE2OiJKclZOUk1YSWt5b0R4d09FIjt98NnjjD8AAAA,1 неделю назад,со двора,есть,70 м²,1.0,,чистовая,50 кВт,центральное,прямая,,административное здание,,"на улице, бесплатная",55.745078,49.107465,,,,,,
"Торговая площадь, 100 м²",200000,"Автозаводский пр-т, 62Набережные Челны",https://www.avito.ru/naberezhnye_chelny/kommercheskaya_nedvizhimost/torgovaya_ploschad_100_m_7303892736?context=H4sIAAAAAAAA_wE_AMD_YToyOntzOjEzOiJsb2NhbFByaW9yaXR5IjtiOjA7czoxOiJ4IjtzOjE2OiJKclZOUk1YSWt5b0R4d09FIjt98NnjjD8AAAA,1 неделю назад,с улицы,,100 м²,1.0,3.2 м,чистовая,"15 кВт, можно увеличить",центральное,прямая,12 мес.,торговый центр,первая линия,на улице,55.744419,52.453609,есть,,,возможна,,
Торговая площадь,40000,"пр-т Альберта Камалеева, 32Казань",https://www.avito.ru/kazan/kommercheskaya_nedvizhimost/torgovaya_ploschad_7327362349?context=H4sIAAAAAAAA_wE_AMD_YToyOntzOjEzOiJsb2NhbFByaW9yaXR5IjtiOjA7czoxOiJ4IjtzOjE2OiJKclZOUk1YSWt5b0R4d09FIjt98NnjjD8AAAA,1 неделю назад,с улицы,есть,77 м²,1.0,,чистовая,,,субаренда,,жилой дом,,на улице,55.78450012,49.19394684,есть,,,возможна,,
"Свободного назначения, 132.9 м²",3750,"ул. Алексея Козина, 8Казань",https://www.avito.ru/kazan/kommercheskaya_nedvizhimost/svobodnogo_naznacheniya_132.9_m_7355710793?context=H4sIAAAAAAAA_wE_AMD_YToyOntzOjEzOiJsb2NhbFByaW9yaXR5IjtiOjA7czoxOiJ4IjtzOjE2OiJKclZOUk1YSWt5b0R4d09FIjt98NnjjD8AAAA,1 неделю назад,с улицы,есть,132.9 м²,1.0,6 м,без отделки,"10 кВт, можно увеличить",,прямая,11 мес.,жилой дом,,на улице,55.81359239763658,49.140379664031954,есть,,,,,
"Аренда в Барс-2, 1-я линия",1800,"ул. Менделеева, 33АНижнекамск",https://www.avito.ru/nizhnekamsk/kommercheskaya_nedvizhimost/arenda_v_bars-2_1-ya_liniya_7353379263?context=H4sIAAAAAAAA_wE_AMD_YToyOntzOjEzOiJsb2NhbFByaW9yaXR5IjtiOjA7czoxOiJ4IjtzOjE2OiJKclZOUk1YSWt5b0R4d09FIjt98NnjjD8AAAA,1 неделю назад,с улицы,,90 м²,1.0,,чистовая,,,прямая,,торговый центр,,на улице,55.655178,51.825516,,,,,,
"Помещение, 36.5 м², д. Куюки, Олимпийская 10",70000,"Олимпийская ул., 8д. Куюки",https://www.avito.ru/kazan/kommercheskaya_nedvizhimost/pomeschenie_36.5_m_d._kuyuki_olimpiyskaya_10_7327872752?context=H4sIAAAAAAAA_wE_AMD_YToyOntzOjEzOiJsb2NhbFByaW9yaXR5IjtiOjA7czoxOiJ4IjtzOjE2OiJKclZOUk1YSWt5b0R4d09FIjt98NnjjD8AAAA,1 неделю назад,с улицы,,36.5 м²,1.0,,офисная,,,субаренда,,другой,первая линия,"на улице, бесплатная",55.722568,49.328891,есть,,эксплуатационные,,,
"Свободного назначения, 110 м²",100000,"ул. Егорова, 1с. Высокая Гора",https://www.avito.ru/vysokaya_gora/kommercheskaya_nedvizhimost/svobodnogo_naznacheniya_110_m_7341009359?context=H4sIAAAAAAAA_wE_AMD_YToyOntzOjEzOiJsb2NhbFByaW9yaXR5IjtiOjA7czoxOiJ4IjtzOjE2OiJKclZOUk1YSWt5b0R4d09FIjt98NnjjD8AAAA,1 неделю назад,с улицы,есть,110 м²,1.0,,без отделки,,,прямая,11 мес.,жилой дом,,"на улице, бесплатная",55.900436,49.326762,,,,,,
"Торговая площадь, 20 м²",20000,"ул. Гагарина, 89Казань",https://www.avito.ru/kazan/kommercheskaya_nedvizhimost/torgovaya_ploschad_20_m_7338427555?context=H4sIAAAAAAAA_wE_AMD_YToyOntzOjEzOiJsb2NhbFByaW9yaXR5IjtiOjA7czoxOiJ4IjtzOjE2OiJKclZOUk1YSWt5b0R4d09FIjt98NnjjD8AAAA,1 неделю назад,с улицы,есть,20 м²,1.0,3.8 м,офисная,15 кВт,центральное,прямая,12 мес.,жилой дом,первая линия,"на улице, бесплатная, подходит для грузового транспорта",55.836969,49.083426,,7.0,,,,
Тёплый склад или помещение под произовдство 115 м²,700,"ул. Восстания, 100к6171Казань",https://www.avito.ru/kazan/kommercheskaya_nedvizhimost/teplyy_sklad_ili_pomeschenie_pod_proizovdstvo_115_m_7349206534?context=H4sIAAAAAAAA_wE_AMD_YToyOntzOjEzOiJsb2NhbFByaW9yaXR5IjtiOjA7czoxOiJ4IjtzOjE2OiJKclZOUk1YSWt5b0R4d09FIjt98NnjjD8AAAA,1 неделю назад,с улицы,есть,115 м²,1.0,8 м,чистовая,25 кВт,,прямая,,другой,,"на улице, бесплатная",55.837217,49.05265,есть,1.0,эксплуатационные,,,
"Торговая площадь, 23 м²",29000,"ул. Сибирский Тракт, 21Казань",https://www.avito.ru/kazan/kommercheskaya_nedvizhimost/torgovaya_ploschad_23_m_7338877072?context=H4sIAAAAAAAA_wE_AMD_YToyOntzOjEzOiJsb2NhbFByaW9yaXR5IjtiOjA7czoxOiJ4IjtzOjE2OiJKclZOUk1YSWt5b0R4d09FIjt98NnjjD8AAAA,1 неделю назад,с улицы,есть,23 м²,1.0,3 м,офисная,15 кВт,центральное,прямая,12 мес.,жилой дом,первая линия,"на улице, бесплатная, подходит для грузового транспорта",55.809768,49.18172,,7.0,,,,
Торговое помещение на первой линии,25000,"ул. Декабристов, 164Казань",https://www.avito.ru/kazan/kommercheskaya_nedvizhimost/torgovoe_pomeschenie_na_pervoy_linii_7353586680?context=H4sIAAAAAAAA_wE_AMD_YToyOntzOjEzOiJsb2NhbFByaW9yaXR5IjtiOjA7czoxOiJ4IjtzOjE2OiJKclZOUk1YSWt5b0R4d09FIjt98NnjjD8AAAA,1 неделю назад,с улицы,,10.3 м²,1.0,,чистовая,,,прямая,,жилой дом,,на улице,55.836863,49.081315,,,,,,
"Помещения, 41.5 м², 52,6 м², с. Коноваловка",63500,"Зелёная ул., 22с. Коноваловка",https://www.avito.ru/menzelinsk/kommercheskaya_nedvizhimost/pomescheniya_41.5_m_526_m_s._konovalovka_7327961356?context=H4sIAAAAAAAA_wE_AMD_YToyOntzOjEzOiJsb2NhbFByaW9yaXR5IjtiOjA7czoxOiJ4IjtzOjE2OiJKclZOUk1YSWt5b0R4d09FIjt98NnjjD8AAAA,1 неделю назад,с улицы,,41.5 м²,1.0,,офисная,,,субаренда,,другой,первая линия,"на улице, бесплатная",55.687081,52.957042,,,эксплуатационные,,,
Помещение 80 м²,80000,"ул. Ленина, 31Азнакаево",https://www.avito.ru/aznakaevo/kommercheskaya_nedvizhimost/pomeschenie_80_m_7303568454?context=H4sIAAAAAAAA_wE_AMD_YToyOntzOjEzOiJsb2NhbFByaW9yaXR5IjtiOjA7czoxOiJ4IjtzOjE2OiJKclZOUk1YSWt5b0R4d09FIjt98NnjjD8AAAA,1 неделю назад,с улицы,,80 м²,1.0,3 м,офисная,15 кВт,,прямая,11 мес.,жилой дом,,"на улице, бесплатная",54.852397,53.078342,есть,5.0,,,,
Помещение 113 кв.м на Ямашева парковка,200000,"пр-т Ямашева, 103АКазань",https://www.avito.ru/kazan/kommercheskaya_nedvizhimost/pomeschenie_113_kv.m_na_yamasheva_parkovka_7314934643?context=H4sIAAAAAAAA_wE_AMD_YToyOntzOjEzOiJsb2NhbFByaW9yaXR5IjtiOjA7czoxOiJ4IjtzOjE2OiJKclZOUk1YSWt5b0R4d09FIjt98NnjjD8AAAA,1 неделю назад,с улицы,,113 м²,1.0,3.5 м,офисная,15 кВт,,прямая,,жилой дом,,на улице,55.824754,49.154537,,,,,,
Помещение с отдельным входом,35000,"пр-т Строителей, 32БЗеленодольск",https://www.avito.ru/zelenodolsk/kommercheskaya_nedvizhimost/pomeschenie_s_otdelnym_vhodom_7328195222?context=H4sIAAAAAAAA_wE_AMD_YToyOntzOjEzOiJsb2NhbFByaW9yaXR5IjtiOjA7czoxOiJ4IjtzOjE2OiJKclZOUk1YSWt5b0R4d09FIjt98NnjjD8AAAA,1 неделю назад,с улицы,есть,25 м²,1.0,,чистовая,,,прямая,11 мес.,жилой дом,,на улице,55.86093521,48.57442093,есть,,,,,
Торговая площадь,2000,"ул. 30 лет Победы, 21Нижнекамск",https://www.avito.ru/nizhnekamsk/kommercheskaya_nedvizhimost/torgovaya_ploschad_7326575357?context=H4sIAAAAAAAA_wE_AMD_YToyOntzOjEzOiJsb2NhbFByaW9yaXR5IjtiOjA7czoxOiJ4IjtzOjE2OiJKclZOUk1YSWt5b0R4d09FIjt98NnjjD8AAAA,1 неделю назад,с улицы,есть,40 м²,1.0,4 м,чистовая,"10 кВт, можно увеличить",,прямая,11 мес.,торговый центр,,"на улице, бесплатная, подходит для грузового транспорта",55.63179224679008,51.789672484859786,есть,,,,,
Склад,100000,"Кооперативная ул., 11Зеленодольск",https://www.avito.ru/zelenodolsk/kommercheskaya_nedvizhimost/sklad_7300616950?context=H4sIAAAAAAAA_wE_AMD_YToyOntzOjEzOiJsb2NhbFByaW9yaXR5IjtiOjA7czoxOiJ4IjtzOjE2OiJKclZOUk1YSWt5b0R4d09FIjt98NnjjD8AAAA,1 неделю назад,с улицы,,100 м²,1.0,3 м,без отделки,,,прямая,12 мес.,другой,,,55.84098434,48.56177521,есть,,,,,
"Сдам торговое помещение, 47 м²",2000,"Краснооктябрьская ул., 68Казань",https://www.avito.ru/kazan/kommercheskaya_nedvizhimost/sdam_torgovoe_pomeschenie_47_m_7353043156?context=H4sIAAAAAAAA_wE_AMD_YToyOntzOjEzOiJsb2NhbFByaW9yaXR5IjtiOjA7czoxOiJ4IjtzOjE2OiJKclZOUk1YSWt5b0R4d09FIjt98NnjjD8AAAA,1 неделю назад,с улицы,,47 м²,1.0,,чистовая,,,прямая,,другой,,на улице,55.812995,49.190829,,,,,,
Аренда кладовки 2 м² - 4 м²,700,"ул. Адоратского, 14Казань",https://www.avito.ru/kazan/kommercheskaya_nedvizhimost/arenda_kladovki_2_m_-_4_m_7337400896?context=H4sIAAAAAAAA_wE_AMD_YToyOntzOjEzOiJsb2NhbFByaW9yaXR5IjtiOjA7czoxOiJ4IjtzOjE2OiJKclZOUk1YSWt5b0R4d09FIjt98NnjjD8AAAA,1 неделю назад,с улицы,есть,4 м²,1.0,2.5 м,чистовая,,,прямая,1 мес.,другой,,"в здании, бесплатная",55.832869617872745,49.14850123278808,есть,,"коммунальные, эксплуатационные",,,
"Свободного назначения, 47.3 м²",40000,"ул. Ярышлар, 6Казань",https://www.avito.ru/kazan/kommercheskaya_nedvizhimost/svobodnogo_naznacheniya_47.3_m_7334705356?context=H4sIAAAAAAAA_wE_AMD_YToyOntzOjEzOiJsb2NhbFByaW9yaXR5IjtiOjA7czoxOiJ4IjtzOjE2OiJKclZOUk1YSWt5b0R4d09FIjt98NnjjD8AAAA,1 неделю назад,с улицы,есть,47.3 м²,1.0,3 м,чистовая,7 кВт,центральное,прямая,11 мес.,жилой дом,первая линия,"на улице, бесплатная",55.680235,49.201707,,,,,,
Торговая площадь на первой линии,155000,"ул. Декабристов, 164Казань",https://www.avito.ru/kazan/kommercheskaya_nedvizhimost/torgovaya_ploschad_na_pervoy_linii_7353672429?context=H4sIAAAAAAAA_wE_AMD_YToyOntzOjEzOiJsb2NhbFByaW9yaXR5IjtiOjA7czoxOiJ4IjtzOjE2OiJKclZOUk1YSWt5b0R4d09FIjt98NnjjD8AAAA,1 неделю назад,с улицы,,105 м²,1.0,,чистовая,,,прямая,,жилой дом,,на улице,55.836863,49.081315,,,,,,
Склад,15000,"Оренбургский пр., 127Казань",https://www.avito.ru/kazan/kommercheskaya_nedvizhimost/sklad_7337234958?context=H4sIAAAAAAAA_wE_AMD_YToyOntzOjEzOiJsb2NhbFByaW9yaXR5IjtiOjA7czoxOiJ4IjtzOjE2OiJKclZOUk1YSWt5b0R4d09FIjt98NnjjD8AAAA,1 неделю назад,с улицы,есть,36 м²,1.0,3 м,без отделки,15 кВт,,прямая,1 мес.,другой,,"на улице, бесплатная, подходит для грузового транспорта",55.73730042935614,49.17112061355319,есть,2.0,,возможна,,B
Сдам помещение 70 м²,1000,"пр-т Ямашева, 93Казань",https://www.avito.ru/kazan/kommercheskaya_nedvizhimost/sdam_pomeschenie_70_m_7353840523?context=H4sIAAAAAAAA_wE_AMD_YToyOntzOjEzOiJsb2NhbFByaW9yaXR5IjtiOjA7czoxOiJ4IjtzOjE2OiJKclZOUk1YSWt5b0R4d09FIjt98NnjjD8AAAA,1 неделю назад,с улицы,,70 м²,1.0,,чистовая,,,прямая,,другой,,нет,55.826043,49.148832,,,,,,
"Аренда под офис/бьюти/торговля/общепит, 58.8 м²",1600,"ул. Гарифа Ахунова, 22АКазань",https://www.avito.ru/kazan/kommercheskaya_nedvizhimost/arenda_pod_ofisbyutitorgovlyaobschepit_58.8_m_7303206684?context=H4sIAAAAAAAA_wE_AMD_YToyOntzOjEzOiJsb2NhbFByaW9yaXR5IjtiOjA7czoxOiJ4IjtzOjE2OiJKclZOUk1YSWt5b0R4d09FIjt98NnjjD8AAAA,1 неделю назад,с улицы,есть,58.8 м²,1.0,2.9 м,чистовая,"5 кВт, можно увеличить",,прямая,11 мес.,другой,,"на улице, бесплатная",55.729133,49.173069,есть,25.0,,,,
Торговая площадь,100000,"Волгоградская ул., 12Казань",https://www.avito.ru/kazan/kommercheskaya_nedvizhimost/torgovaya_ploschad_7355308533?context=H4sIAAAAAAAA_wE_AMD_YToyOntzOjEzOiJsb2NhbFByaW9yaXR5IjtiOjA7czoxOiJ4IjtzOjE2OiJKclZOUk1YSWt5b0R4d09FIjt98NnjjD8AAAA,1 неделю назад,с улицы,есть,57.9 м²,1.0,2.5 м,чистовая,,,прямая,,жилой дом,,на улице,55.830293230287765,49.08588405428844,есть,,,,,
Прикассовая зона в ТЦ,28200,"Залесная ул., 66Казань",https://www.avito.ru/kazan/kommercheskaya_nedvizhimost/prikassovaya_zona_v_tts_7333230733?context=H4sIAAAAAAAA_wE_AMD_YToyOntzOjEzOiJsb2NhbFByaW9yaXR5IjtiOjA7czoxOiJ4IjtzOjE2OiJKclZOUk1YSWt5b0R4d09FIjt98NnjjD8AAAA,1 неделю назад,с улицы,,6 м²,1.0,5 м,чистовая,,,прямая,,торговый центр,,на улице,55.850464,48.895121,,,"оплата по счётчикам, коммунальные, эксплуатационные",,,
"1 этаж, 1 линия, Новый ТЦ",1400,"ул. Дементьева, 72БКазань",https://www.avito.ru/kazan/kommercheskaya_nedvizhimost/1_etazh_1_liniya_novyy_tts_7333348404?context=H4sIAAAAAAAA_wE_AMD_YToyOntzOjEzOiJsb2NhbFByaW9yaXR5IjtiOjA7czoxOiJ4IjtzOjE2OiJKclZOUk1YSWt5b0R4d09FIjt98NnjjD8AAAA,1 неделю назад,с улицы,,44.2 м²,1.0,6 м,чистовая,3 кВт,,прямая,,торговый центр,,на улице,55.86253,49.109208,,,,,,
Производственно-складское помещение с воротами,132480,"Залесная ул., 66Казань",https://www.avito.ru/kazan/kommercheskaya_nedvizhimost/proizvodstvenno-skladskoe_pomeschenie_s_vorotami_7333557172?context=H4sIAAAAAAAA_wE_AMD_YToyOntzOjEzOiJsb2NhbFByaW9yaXR5IjtiOjA7czoxOiJ4IjtzOjE2OiJKclZOUk1YSWt5b0R4d09FIjt98NnjjD8AAAA,1 неделю назад,с улицы,,110.4 м²,1.0,7 м,чистовая,,,прямая,,торговый центр,,на улице,55.850464,48.895121,,,"оплата по счётчикам, коммунальные, эксплуатационные",,,
"Офис 1 линия, 1 этаж, Отд. вход, доступ 24/7",1300,"ул. Дементьева, 72БКазань",https://www.avito.ru/kazan/kommercheskaya_nedvizhimost/ofis_1_liniya_1_etazh_otd._vhod_dostup_247_7333606197?context=H4sIAAAAAAAA_wE_AMD_YToyOntzOjEzOiJsb2NhbFByaW9yaXR5IjtiOjA7czoxOiJ4IjtzOjE2OiJKclZOUk1YSWt5b0R4d09FIjt98NnjjD8AAAA,1 неделю назад,,,52 м²,1.0,6 м,чистовая,,,прямая,,торговый центр,,на улице,55.86253,49.109208,,,,,"кабинетная, открытая",
"1 этаж, прикассовая зона, кэу входят",1350,"ул. Оренбургский Тракт, 22АКазань",https://www.avito.ru/kazan/kommercheskaya_nedvizhimost/1_etazh_prikassovaya_zona_keu_vhodyat_7333780725?context=H4sIAAAAAAAA_wE_AMD_YToyOntzOjEzOiJsb2NhbFByaW9yaXR5IjtiOjA7czoxOiJ4IjtzOjE2OiJKclZOUk1YSWt5b0R4d09FIjt98NnjjD8AAAA,1 неделю назад,с улицы,,50 м²,1.0,,чистовая,,,прямая,,торговый центр,,на улице,55.753321,49.160043,,,"оплата по счётчикам, коммунальные, эксплуатационные",,,
"1 этаж, 1 линия, прикассовая зона, Новый ТЦ",30600,"ул. Дементьева, 72БКазань",https://www.avito.ru/kazan/kommercheskaya_nedvizhimost/1_etazh_1_liniya_prikassovaya_zona_novyy_tts_7333799821?context=H4sIAAAAAAAA_wE_AMD_YToyOntzOjEzOiJsb2NhbFByaW9yaXR5IjtiOjA7czoxOiJ4IjtzOjE2OiJKclZOUk1YSWt5b0R4d09FIjt98NnjjD8AAAA,1 неделю назад,с улицы,,10.2 м²,1.0,6 м,чистовая,,,прямая,,торговый центр,,на улице,55.86253,49.109208,,,,,,
"1 этаж, прикассовая зона, кэу входят",1350,"ул. Оренбургский Тракт, 22АКазань",https://www.avito.ru/kazan/kommercheskaya_nedvizhimost/1_etazh_prikassovaya_zona_keu_vhodyat_7333955178?context=H4sIAAAAAAAA_wE_AMD_YToyOntzOjEzOiJsb2NhbFByaW9yaXR5IjtiOjA7czoxOiJ4IjtzOjE2OiJKclZOUk1YSWt5b0R4d09FIjt98NnjjD8AAAA,1 неделю назад,с улицы,,20 м²,1.0,,чистовая,,,прямая,,торговый центр,,на улице,55.753321,49.160043,,,"оплата по счётчикам, коммунальные, эксплуатационные",,,
60кв.м. свободного назначения на ул.Ленинградская,115000,"Ленинградская ул., 22Казань",https://www.avito.ru/kazan/kommercheskaya_nedvizhimost/60kv.m._svobodnogo_naznacheniya_na_ul.leningradskaya_7314331951?context=H4sIAAAAAAAA_wE_AMD_YToyOntzOjEzOiJsb2NhbFByaW9yaXR5IjtiOjA7czoxOiJ4IjtzOjE2OiJKclZOUk1YSWt5b0R4d09FIjt98NnjjD8AAAA,1 неделю назад,с улицы,,60.5 м²,1.0,,офисная,,,прямая,,жилой дом,,нет,55.861757,49.085564,,,,,,
"Свободного назначения, 40 м²",24200,"пр-т Мира, 24АНабережные Челны",https://www.avito.ru/naberezhnye_chelny/kommercheskaya_nedvizhimost/svobodnogo_naznacheniya_40_m_7343772562?context=H4sIAAAAAAAA_wE_AMD_YToyOntzOjEzOiJsb2NhbFByaW9yaXR5IjtiOjA7czoxOiJ4IjtzOjE2OiJKclZOUk1YSWt5b0R4d09FIjt98NnjjD8AAAA,1 неделю назад,с улицы,,40 м²,1.0,3.1 м,чистовая,,центральное,прямая,3 мес.,бизнес-центр,первая линия,"на улице, бесплатная",55.730248,52.395586,,,,возможна,,
"Торговая площадь, 48.8 м²",2400,"Сармановский тракт, 48АНабережные Челны",https://www.avito.ru/naberezhnye_chelny/kommercheskaya_nedvizhimost/torgovaya_ploschad_48.8_m_7349836145?context=H4sIAAAAAAAA_wE_AMD_YToyOntzOjEzOiJsb2NhbFByaW9yaXR5IjtiOjA7czoxOiJ4IjtzOjE2OiJKclZOUk1YSWt5b0R4d09FIjt98NnjjD8AAAA,1 неделю назад,с улицы,,48.8 м²,1.0,4.3 м,чистовая,,,прямая,11 мес.,торговый центр,,"на улице, бесплатная, подходит для грузового транспорта",55.694637,52.337582,есть,100.0,эксплуатационные,,,
"Склад, 150 м²",150000,"посёлок Элеваторная Гора, ул. Добролюбова, 27Набережные Челны",https://www.avito.ru/naberezhnye_chelny/kommercheskaya_nedvizhimost/sklad_150_m_7349893193?context=H4sIAAAAAAAA_wE_AMD_YToyOntzOjEzOiJsb2NhbFByaW9yaXR5IjtiOjA7czoxOiJ4IjtzOjE2OiJKclZOUk1YSWt5b0R4d09FIjt98NnjjD8AAAA,1 неделю назад,с улицы,есть,150 м²,1.0,5 м,чистовая,220 кВт,автономное,прямая,6 мес.,другой,,"на улице, бесплатная, подходит для грузового транспорта",55.710616,52.334447,,4.0,,,,A
"Свободного назначения, 138.9 м²",250000,"ул. Рауиса Гареева, 108Казань",https://www.avito.ru/kazan/kommercheskaya_nedvizhimost/svobodnogo_naznacheniya_138.9_m_7350532356?context=H4sIAAAAAAAA_wE_AMD_YToyOntzOjEzOiJsb2NhbFByaW9yaXR5IjtiOjA7czoxOiJ4IjtzOjE2OiJKclZOUk1YSWt5b0R4d09FIjt98NnjjD8AAAA,1 неделю назад,с улицы,есть,138.9 м²,1.0,5 м,офисная,28 кВт,,прямая,3 мес.,другой,,"на улице, бесплатная, подходит для грузового транспорта",55.72459738139186,49.17303382901555,есть,,коммунальные,,,
Помещение 106кв.м на ул.Рахлина 5,160000,"ул. Натана Рахлина, 5Казань",https://www.avito.ru/kazan/kommercheskaya_nedvizhimost/pomeschenie_106kv.m_na_ul.rahlina_5_7314048108?context=H4sIAAAAAAAA_wE_AMD_YToyOntzOjEzOiJsb2NhbFByaW9yaXR5IjtiOjA7czoxOiJ4IjtzOjE2OiJhSnd5Y1g5WXZ3NVhubzg4Ijt9s8cfBz8AAAA,1 неделю назад,с улицы,,106 м²,1.0,,офисная,,,прямая,,жилой дом,,нет,55.801035,49.244135,,,,,,
"Свободного назначения, 148.3 м²",47693,"ул. Лукина, 37Казань",https://www.avito.ru/kazan/kommercheskaya_nedvizhimost/svobodnogo_naznacheniya_148.3_m_7333226245?context=H4sIAAAAAAAA_wE_AMD_YToyOntzOjEzOiJsb2NhbFByaW9yaXR5IjtiOjA7czoxOiJ4IjtzOjE2OiJhSnd5Y1g5WXZ3NVhubzg4Ijt9s8cfBz8AAAA,1 неделю назад,с улицы,,148.3 м²,1.0,,чистовая,,центральное,прямая,60 мес.,жилой дом,первая линия,на улице,55.866349,49.092751,,,,,,
"Кафе, офис, фитнес, производство, мастерская",150000,"ул. Побежимова, 28Казань",https://www.avito.ru/kazan/kommercheskaya_nedvizhimost/kafe_ofis_fitnes_proizvodstvo_masterskaya_7328518457?context=H4sIAAAAAAAA_wE_AMD_YToyOntzOjEzOiJsb2NhbFByaW9yaXR5IjtiOjA7czoxOiJ4IjtzOjE2OiJhSnd5Y1g5WXZ3NVhubzg4Ijt9s8cfBz8AAAA,1 неделю назад,с улицы,есть,136 м²,1.0,3 м,без отделки,70 кВт,,прямая,12 мес.,другой,,"на улице, бесплатная",55.859003,49.086382,есть,,,возможна,,
Аренда контейнера под склад,6000,"ЖК Лесной Городок, Берёзовая ул., 2АКазань",https://www.avito.ru/kazan/kommercheskaya_nedvizhimost/arenda_konteynera_pod_sklad_7314236462?context=H4sIAAAAAAAA_wE_AMD_YToyOntzOjEzOiJsb2NhbFByaW9yaXR5IjtiOjA7czoxOiJ4IjtzOjE2OiJhSnd5Y1g5WXZ3NVhubzg4Ijt9s8cfBz8AAAA,1 неделю назад,с улицы,есть,15 м²,1.0,2.6 м,без отделки,0 кВт,нет,прямая,,другой,,нет,55.709059,49.183624,,,"коммунальные, эксплуатационные",,,
Первая линия первый этаж 50м солнечный город,120000,"ул. Баки Урманче, 5Казань",https://www.avito.ru/kazan/kommercheskaya_nedvizhimost/pervaya_liniya_pervyy_etazh_50m_solnechnyy_gorod_7303940980?context=H4sIAAAAAAAA_wE_AMD_YToyOntzOjEzOiJsb2NhbFByaW9yaXR5IjtiOjA7czoxOiJ4IjtzOjE2OiJhSnd5Y1g5WXZ3NVhubzg4Ijt9s8cfBz8AAAA,1 неделю назад,с улицы,есть,50 м²,1.0,3.5 м,офисная,13 кВт,,прямая,11 мес.,жилой дом,,"на улице, бесплатная",55.73160692527843,49.17609955536872,есть,30.0,эксплуатационные,,,
"Свободного назначения, 18 м²",30000,"Совхозная ул., 45с. Столбище",https://www.avito.ru/stolbische/kommercheskaya_nedvizhimost/svobodnogo_naznacheniya_18_m_7294631568?context=H4sIAAAAAAAA_wE_AMD_YToyOntzOjEzOiJsb2NhbFByaW9yaXR5IjtiOjA7czoxOiJ4IjtzOjE2OiJhSnd5Y1g5WXZ3NVhubzg4Ijt9s8cfBz8AAAA,1 неделю назад,с улицы,есть,18 м²,1.0,2.5 м,чистовая,50 кВт,нет,прямая,,другой,первая линия,"на улице, бесплатная, подходит для грузового транспорта",55.625653,49.22898,,,,,,
"Офис,магазин",2500,"ул. Александра Курынова, 5к2Казань",https://www.avito.ru/kazan/kommercheskaya_nedvizhimost/ofismagazin_7341393736?context=H4sIAAAAAAAA_wE_AMD_YToyOntzOjEzOiJsb2NhbFByaW9yaXR5IjtiOjA7czoxOiJ4IjtzOjE2OiJhSnd5Y1g5WXZ3NVhubzg4Ijt9s8cfBz8AAAA,1 неделю назад,с улицы,есть,134 м²,1.0,4.5 м,чистовая,15 кВт,,прямая,11 мес.,жилой дом,,"на улице, бесплатная, подходит для грузового транспорта",55.79943528918553,49.240816629324,есть,50.0,,возможна,,
Офис,90000,"Комсомольская ул., 1Казань",https://www.avito.ru/kazan/kommercheskaya_nedvizhimost/ofis_7341236995?context=H4sIAAAAAAAA_wE_AMD_YToyOntzOjEzOiJsb2NhbFByaW9yaXR5IjtiOjA7czoxOiJ4IjtzOjE2OiJhSnd5Y1g5WXZ3NVhubzg4Ijt9s8cfBz8AAAA,1 неделю назад,,,71 м²,1.0,4 м,чистовая,,,прямая,11 мес.,жилой дом,,"на улице, бесплатная",55.81002448860201,49.09684007773775,есть,20.0,,,открытая,
Торговая площадь,41000,"ул. Шамиля Усманова, 13Казань",https://www.avito.ru/kazan/kommercheskaya_nedvizhimost/torgovaya_ploschad_7341771943?context=H4sIAAAAAAAA_wE_AMD_YToyOntzOjEzOiJsb2NhbFByaW9yaXR5IjtiOjA7czoxOiJ4IjtzOjE2OiJhSnd5Y1g5WXZ3NVhubzg4Ijt9s8cfBz8AAAA,1 неделю назад,с улицы,есть,46 м²,1.0,3 м,чистовая,,,прямая,,жилой дом,,"на улице, бесплатная",55.82911301,49.07277298,есть,20.0,,,,
"Склад, 70 м²",60000,"посёлок Орловка, ул. Ивана Утробина, 15БНабережные Челны",https://www.avito.ru/naberezhnye_chelny/kommercheskaya_nedvizhimost/sklad_70_m_7325767786?context=H4sIAAAAAAAA_wE_AMD_YToyOntzOjEzOiJsb2NhbFByaW9yaXR5IjtiOjA7czoxOiJ4IjtzOjE2OiJhSnd5Y1g5WXZ3NVhubzg4Ijt9s8cfBz8AAAA,1 неделю назад,со двора,есть,70 м²,1.0,4 м,чистовая,,,прямая,12 мес.,административное здание,,"на улице, бесплатная",55.71621303644763,52.38825886718921,есть,,коммунальные,,,
"Первая линия, свободное назначение 76 м²",1100,"Краснококшайская ул., 119Казань",https://www.avito.ru/kazan/kommercheskaya_nedvizhimost/pervaya_liniya_svobodnoe_naznachenie_76_m_7351008668?context=H4sIAAAAAAAA_wE_AMD_YToyOntzOjEzOiJsb2NhbFByaW9yaXR5IjtiOjA7czoxOiJ4IjtzOjE2OiJhSnd5Y1g5WXZ3NVhubzg4Ijt9s8cfBz8AAAA,1 неделю назад,с улицы,есть,76 м²,1.0,4.5 м,офисная,62 кВт,автономное,прямая,,жилой дом,первая линия,"на улице, бесплатная",55.815929,49.06555,,40.0,,возможна,,
Свободного назначения,60000,"пр-т Нефтяников, 187Елабуга",https://www.avito.ru/elabuga/kommercheskaya_nedvizhimost/svobodnogo_naznacheniya_7341538321?context=H4sIAAAAAAAA_wE_AMD_YToyOntzOjEzOiJsb2NhbFByaW9yaXR5IjtiOjA7czoxOiJ4IjtzOjE2OiJhSnd5Y1g5WXZ3NVhubzg4Ijt9s8cfBz8AAAA,1 неделю назад,с улицы,есть,60 м²,1.0,3.2 м,офисная,15 кВт,,прямая,12 мес.,административное здание,,"на улице, бесплатная, подходит для грузового транспорта",55.75677495112575,52.06820506442187,есть,15.0,,,,
"Свободного назначения, 96 м²",700,"ул. Горького, 43Лаишево",https://www.avito.ru/laishevo/kommercheskaya_nedvizhimost/svobodnogo_naznacheniya_96_m_7337165537?context=H4sIAAAAAAAA_wE_AMD_YToyOntzOjEzOiJsb2NhbFByaW9yaXR5IjtiOjA7czoxOiJ4IjtzOjE2OiJhSnd5Y1g5WXZ3NVhubzg4Ijt9s8cfBz8AAAA,1 неделю назад,с улицы,,96 м²,1.0,8 м,чистовая,,центральное,прямая,11 мес.,торговый центр,первая линия,"на улице, бесплатная",55.412888760030135,49.548519881201976,есть,25.0,эксплуатационные,,,
Свободного назначения,2600,"Даурская ул., 40Казань",https://www.avito.ru/kazan/kommercheskaya_nedvizhimost/svobodnogo_naznacheniya_7307864684?context=H4sIAAAAAAAA_wE_AMD_YToyOntzOjEzOiJsb2NhbFByaW9yaXR5IjtiOjA7czoxOiJ4IjtzOjE2OiJhSnd5Y1g5WXZ3NVhubzg4Ijt9s8cfBz8AAAA,1 неделю назад,с улицы,есть,28.4 м²,1.0,2.7 м,чистовая,"10 кВт, можно увеличить",,прямая,60 мес.,жилой дом,,на улице,55.76451119665477,49.17661391495457,есть,,,,,
Торговая площадь,3000,"пр-т Сююмбике, 65/35/1Набережные Челны",https://www.avito.ru/naberezhnye_chelny/kommercheskaya_nedvizhimost/torgovaya_ploschad_7338510113?context=H4sIAAAAAAAA_wE_AMD_YToyOntzOjEzOiJsb2NhbFByaW9yaXR5IjtiOjA7czoxOiJ4IjtzOjE2OiJhSnd5Y1g5WXZ3NVhubzg4Ijt9s8cfBz8AAAA,1 неделю назад,с улицы,есть,33 м²,1.0,3 м,чистовая,,,прямая,11 мес.,другой,,нет,55.752986566082924,52.4085898708375,есть,,"коммунальные, эксплуатационные",,,
"Свободного назначения, 20 м²",2500,"32-й комплекс, 1Набережные Челны",https://www.avito.ru/naberezhnye_chelny/kommercheskaya_nedvizhimost/svobodnogo_naznacheniya_20_m_7333219867?context=H4sIAAAAAAAA_wE_AMD_YToyOntzOjEzOiJsb2NhbFByaW9yaXR5IjtiOjA7czoxOiJ4IjtzOjE2OiJhSnd5Y1g5WXZ3NVhubzg4Ijt9s8cfBz8AAAA,1 неделю назад,со двора,есть,20 м²,1.0,3 м,чистовая,5 кВт,,прямая,11 мес.,жилой дом,,на улице,55.72104777399728,52.37573835449215,есть,10.0,,,,
"Свободного назначения, 30 м²",20000,"Тополевая ул., 55Казань",https://www.avito.ru/kazan/kommercheskaya_nedvizhimost/svobodnogo_naznacheniya_30_m_7341441899?context=H4sIAAAAAAAA_wE_AMD_YToyOntzOjEzOiJsb2NhbFByaW9yaXR5IjtiOjA7czoxOiJ4IjtzOjE2OiJhSnd5Y1g5WXZ3NVhubzg4Ijt9s8cfBz8AAAA,1 неделю назад,с улицы,,30 м²,1.0,2.6 м,без отделки,,нет,прямая,11 мес.,другой,первая линия,"на улице, бесплатная, подходит для грузового транспорта",55.874617,49.22942,,,"коммунальные, эксплуатационные",,,
"Офис, 90 м²",1700,"Даурская ул., 44ГКазань",https://www.avito.ru/kazan/kommercheskaya_nedvizhimost/ofis_90_m_7352930745?context=H4sIAAAAAAAA_wE_AMD_YToyOntzOjEzOiJsb2NhbFByaW9yaXR5IjtiOjA7czoxOiJ4IjtzOjE2OiJhSnd5Y1g5WXZ3NVhubzg4Ijt9s8cfBz8AAAA,1 неделю назад,,,90 м²,1.0,3 м,офисная,,,прямая,11 мес.,жилой дом,,"на улице, бесплатная",55.765985,49.18746,,,,,кабинетная,
Свободного назначения,1000,"ул. Дружбы, 16д. Травкино",https://www.avito.ru/stolbische/kommercheskaya_nedvizhimost/svobodnogo_naznacheniya_7349347639?context=H4sIAAAAAAAA_wE_AMD_YToyOntzOjEzOiJsb2NhbFByaW9yaXR5IjtiOjA7czoxOiJ4IjtzOjE2OiJhSnd5Y1g5WXZ3NVhubzg4Ijt9s8cfBz8AAAA,1 неделю назад,с улицы,есть,21 м²,1.0,2.7 м,офисная,,,прямая,1 мес.,бизнес-центр,,на улице,55.55310059,49.27077103,есть,,,,,
"Свободного назначения, 60 м²",90000,"ул. Юлиуса Фучика, 109Казань",https://www.avito.ru/kazan/kommercheskaya_nedvizhimost/svobodnogo_naznacheniya_60_m_7321393271?context=H4sIAAAAAAAA_wE_AMD_YToyOntzOjEzOiJsb2NhbFByaW9yaXR5IjtiOjA7czoxOiJ4IjtzOjE2OiJhSnd5Y1g5WXZ3NVhubzg4Ijt9s8cfBz8AAAA,1 неделю назад,с улицы,есть,60 м²,1.0,2.8 м,офисная,15 кВт,центральное,прямая,12 мес.,жилой дом,первая линия,"на улице, бесплатная",55.756366,49.230525,,,,,,
"Торговая площадь, Карбышева ул., 50",1500,"ул. Карбышева, 50/1Казань",https://www.avito.ru/kazan/kommercheskaya_nedvizhimost/torgovaya_ploschad_karbysheva_ul._50_7314168353?context=H4sIAAAAAAAA_wE_AMD_YToyOntzOjEzOiJsb2NhbFByaW9yaXR5IjtiOjA7czoxOiJ4IjtzOjE2OiJhSnd5Y1g5WXZ3NVhubzg4Ijt9s8cfBz8AAAA,1 неделю назад,с улицы,,84.2 м²,1.0,,офисная,,,прямая,,жилой дом,,нет,55.758083,49.176545,,,,,,
"Сдаётся Помещение в ЖК Отражение, 85 кв.м",1600,"пр-т Чулман, 81Набережные Челны",https://www.avito.ru/naberezhnye_chelny/kommercheskaya_nedvizhimost/sdaetsya_pomeschenie_v_zhk_otrazhenie_85_kv.m_7314753754?context=H4sIAAAAAAAA_wE_AMD_YToyOntzOjEzOiJsb2NhbFByaW9yaXR5IjtiOjA7czoxOiJ4IjtzOjE2OiJhSnd5Y1g5WXZ3NVhubzg4Ijt9s8cfBz8AAAA,1 неделю назад,с улицы,,85 м²,1.0,,чистовая,,,прямая,,жилой дом,,нет,55.744014,52.379426,,,,,,
Свободного назначения,10000,"ул. Николая Ершова, 78БКазань",https://www.avito.ru/kazan/kommercheskaya_nedvizhimost/svobodnogo_naznacheniya_7308493675?context=H4sIAAAAAAAA_wE_AMD_YToyOntzOjEzOiJsb2NhbFByaW9yaXR5IjtiOjA7czoxOiJ4IjtzOjE2OiJhSnd5Y1g5WXZ3NVhubzg4Ijt9s8cfBz8AAAA,1 неделю назад,с улицы,,5 м²,1.0,3 м,чистовая,,,прямая,,торговый центр,,на улице,55.80054474,49.18252945,есть,,,,,
"Офис, 27 кв.м с индив. санузлом, дизайн.ремонтом",72900,"ул. Четаева, 14Ак2Казань",https://www.avito.ru/kazan/kommercheskaya_nedvizhimost/ofis_27_kv.m_s_indiv._sanuzlom_dizayn.remontom_7310132058?context=H4sIAAAAAAAA_wE_AMD_YToyOntzOjEzOiJsb2NhbFByaW9yaXR5IjtiOjA7czoxOiJ4IjtzOjE2OiJhSnd5Y1g5WXZ3NVhubzg4Ijt9s8cfBz8AAAA,1 неделю назад,с улицы,,27 м²,1.0,2.5 м,офисная,10 кВт,центральное,прямая,11 мес.,жилой дом,,"на улице, бесплатная",55.82270432,49.14426804,есть,50.0,,,,
"Свободного назначения, 102.8 м²",180000,"пр-т Победы, 139Ак2Казань",https://www.avito.ru/kazan/kommercheskaya_nedvizhimost/svobodnogo_naznacheniya_102.8_m_7329306098?context=H4sIAAAAAAAA_wE_AMD_YToyOntzOjEzOiJsb2NhbFByaW9yaXR5IjtiOjA7czoxOiJ4IjtzOjE2OiJhSnd5Y1g5WXZ3NVhubzg4Ijt9s8cfBz8AAAA,1 неделю назад,с улицы,есть,102.8 м²,1.0,4 м,офисная,,центральное,прямая,11 мес.,жилой дом,вторая линия и дальше,"на улице, бесплатная, подходит для грузового транспорта",55.775793,49.213852,есть,,,,,
"Большой пешеходный трафик, 20 м²",45000,"ул. Ленина, 31Азнакаево",https://www.avito.ru/aznakaevo/kommercheskaya_nedvizhimost/bolshoy_peshehodnyy_trafik_20_m_7303606912?context=H4sIAAAAAAAA_wE_AMD_YToyOntzOjEzOiJsb2NhbFByaW9yaXR5IjtiOjA7czoxOiJ4IjtzOjE2OiJhSnd5Y1g5WXZ3NVhubzg4Ijt9s8cfBz8AAAA,1 неделю назад,с улицы,есть,20 м²,1.0,3 м,чистовая,15 кВт,,прямая,11 мес.,жилой дом,,"на улице, бесплатная",54.852397,53.078342,есть,5.0,,,,
Торговая площадь,350000,"ул. Муштари, 4Казань",https://www.avito.ru/kazan/kommercheskaya_nedvizhimost/torgovaya_ploschad_7337555773?context=H4sIAAAAAAAA_wE_AMD_YToyOntzOjEzOiJsb2NhbFByaW9yaXR5IjtiOjA7czoxOiJ4IjtzOjE2OiJhSnd5Y1g5WXZ3NVhubzg4Ijt9s8cfBz8AAAA,1 неделю назад,с улицы,есть,111.3 м²,1.0,3.5 м,чистовая,10 кВт,,прямая,11 мес.,жилой дом,,на улице,55.78848067930751,49.13848000145036,есть,,,,,
Аренда Ларька 30 м2 на Ямашева,30000,"пр-т Ямашева, 59АКазань",https://www.avito.ru/kazan/kommercheskaya_nedvizhimost/arenda_larka_30_m2_na_yamasheva_7313815041?context=H4sIAAAAAAAA_wE_AMD_YToyOntzOjEzOiJsb2NhbFByaW9yaXR5IjtiOjA7czoxOiJ4IjtzOjE2OiJhSnd5Y1g5WXZ3NVhubzg4Ijt9s8cfBz8AAAA,1 неделю назад,с улицы,есть,30 м²,1.0,2.5 м,офисная,,,прямая,,другой,,на улице,55.826392,49.128522,есть,,,,,
Торговая площадь 60.5,130000,"Ленинградская ул., 22Казань",https://www.avito.ru/kazan/kommercheskaya_nedvizhimost/torgovaya_ploschad_60.5_7313026993?context=H4sIAAAAAAAA_wE_AMD_YToyOntzOjEzOiJsb2NhbFByaW9yaXR5IjtiOjA7czoxOiJ4IjtzOjE2OiJhSnd5Y1g5WXZ3NVhubzg4Ijt9s8cfBz8AAAA,1 неделю назад,с улицы,,60.5 м²,1.0,3 м,чистовая,50 кВт,,прямая,,жилой дом,,на улице,55.86175537,49.08556366,есть,10.0,,,,
"Свободного назначения, 57.5 м²",115000,"ул. Юлиуса Фучика, 133Казань",https://www.avito.ru/kazan/kommercheskaya_nedvizhimost/svobodnogo_naznacheniya_57.5_m_7321434069?context=H4sIAAAAAAAA_wE_AMD_YToyOntzOjEzOiJsb2NhbFByaW9yaXR5IjtiOjA7czoxOiJ4IjtzOjE2OiJhSnd5Y1g5WXZ3NVhubzg4Ijt9s8cfBz8AAAA,1 неделю назад,с улицы,есть,57.5 м²,1.0,3 м,офисная,15 кВт,центральное,прямая,11 мес.,жилой дом,первая линия,на улице,55.767757,49.230732,есть,,,,,
"Торговая площадь, 10 м²",15000,"ул. Фрунзе, 15Казань",https://www.avito.ru/kazan/kommercheskaya_nedvizhimost/torgovaya_ploschad_10_m_7331557215?context=H4sIAAAAAAAA_wE_AMD_YToyOntzOjEzOiJsb2NhbFByaW9yaXR5IjtiOjA7czoxOiJ4IjtzOjE2OiJhSnd5Y1g5WXZ3NVhubzg4Ijt9s8cfBz8AAAA,1 неделю назад,с улицы,есть,10 м²,1.0,3 м,офисная,,,прямая,11 мес.,жилой дом,,"на улице, бесплатная",55.821355,49.051913,есть,,,,,
Свободного назначения,65000,"ул. Фатыха Амирхана, 30Казань",https://www.avito.ru/kazan/kommercheskaya_nedvizhimost/svobodnogo_naznacheniya_7355453653?context=H4sIAAAAAAAA_wE_AMD_YToyOntzOjEzOiJsb2NhbFByaW9yaXR5IjtiOjA7czoxOiJ4IjtzOjE2OiJhSnd5Y1g5WXZ3NVhubzg4Ijt9s8cfBz8AAAA,1 неделю назад,с улицы,,60 м²,1.0,,офисная,,,прямая,6 мес.,жилой дом,,на улице,55.84043503,49.13525772,есть,,,,,
"1 линия, Торговая площадь, 90 м² 60 м²45 м²",1500,"пр-т Химиков, 53Нижнекамск",https://www.avito.ru/nizhnekamsk/kommercheskaya_nedvizhimost/1_liniya_torgovaya_ploschad_90_m_60_m45_m_7338303192?context=H4sIAAAAAAAA_wE_AMD_YToyOntzOjEzOiJsb2NhbFByaW9yaXR5IjtiOjA7czoxOiJ4IjtzOjE2OiJhSnd5Y1g5WXZ3NVhubzg4Ijt9s8cfBz8AAAA,1 неделю назад,с улицы,,90 м²,1.0,4 м,чистовая,"50 кВт, можно увеличить",,прямая,11 мес.,торговый центр,,"на улице, бесплатная, подходит для грузового транспорта",55.6365509,51.81124878,есть,,,возможна,,
Офис,25000,"ул. Фатыха Амирхана, 30Казань",https://www.avito.ru/kazan/kommercheskaya_nedvizhimost/ofis_7355121438?context=H4sIAAAAAAAA_wE_AMD_YToyOntzOjEzOiJsb2NhbFByaW9yaXR5IjtiOjA7czoxOiJ4IjtzOjE2OiJhSnd5Y1g5WXZ3NVhubzg4Ijt9s8cfBz8AAAA,1 неделю назад,с улицы,,12 м²,1.0,,офисная,,,прямая,6 мес.,жилой дом,,на улице,55.84043503,49.13525772,есть,,,,,
Свободного назначения,120000,"посёлок Орловка, Орловская ул., 210Набережные Челны",https://www.avito.ru/naberezhnye_chelny/kommercheskaya_nedvizhimost/svobodnogo_naznacheniya_7310931826?context=H4sIAAAAAAAA_wE_AMD_YToyOntzOjEzOiJsb2NhbFByaW9yaXR5IjtiOjA7czoxOiJ4IjtzOjE2OiJhSnd5Y1g5WXZ3NVhubzg4Ijt9s8cfBz8AAAA,1 неделю назад,с улицы,есть,138.8 м²,1.0,3.8 м,чистовая,,,прямая,,административное здание,,на улице,55.71142146235576,52.39474678092458,есть,,,,,
"Торговая,от 60 до 127 м²",1300,"Московский пр-т, 35Набережные Челны",https://www.avito.ru/naberezhnye_chelny/kommercheskaya_nedvizhimost/torgovayaot_60_do_127_m_7351879901?context=H4sIAAAAAAAA_wE_AMD_YToyOntzOjEzOiJsb2NhbFByaW9yaXR5IjtiOjA7czoxOiJ4IjtzOjE2OiJhSnd5Y1g5WXZ3NVhubzg4Ijt9s8cfBz8AAAA,1 неделю назад,с улицы,есть,1 м²,1.0,4 м,без отделки,"24 кВт, можно увеличить",,прямая,,административное здание,,"на улице, бесплатная",55.71209777552619,52.37509118645423,есть,20.0,,,,
Первая линия на выезде из города,2500,"Советский район, жилой массив Большие Клыки, Магистральная ул., 1АКазань",https://www.avito.ru/kazan/kommercheskaya_nedvizhimost/pervaya_liniya_na_vyezde_iz_goroda_7337355146?context=H4sIAAAAAAAA_wE_AMD_YToyOntzOjEzOiJsb2NhbFByaW9yaXR5IjtiOjA7czoxOiJ4IjtzOjE2OiJhSnd5Y1g5WXZ3NVhubzg4Ijt9s8cfBz8AAAA,1 неделю назад,с улицы,есть,52 м²,1.0,2.6 м,чистовая,15 кВт,,прямая,12 мес.,другой,,на улице,55.79588493135607,49.23262813165672,есть,,,возможна,,
"Свободного назначения, 66 м²",79200,"ул. Горьковское Шоссе, 49к1Казань",https://www.avito.ru/kazan/kommercheskaya_nedvizhimost/svobodnogo_naznacheniya_66_m_7314191199?context=H4sIAAAAAAAA_wE_AMD_YToyOntzOjEzOiJsb2NhbFByaW9yaXR5IjtiOjA7czoxOiJ4IjtzOjE2OiJhSnd5Y1g5WXZ3NVhubzg4Ijt9s8cfBz8AAAA,1 неделю назад,со двора,есть,66 м²,1.0,,офисная,,центральное,прямая,11 мес.,бизнес-центр,первая линия,"на улице, бесплатная",55.825669,49.023248,,,,,,
"Торговое помещение на первой линии, 40 м²",60000,"ул. Кул Гали, 34Казань",https://www.avito.ru/kazan/kommercheskaya_nedvizhimost/torgovoe_pomeschenie_na_pervoy_linii_40_m_7321484462?context=H4sIAAAAAAAA_wE_AMD_YToyOntzOjEzOiJsb2NhbFByaW9yaXR5IjtiOjA7czoxOiJ4IjtzOjE2OiJhSnd5Y1g5WXZ3NVhubzg4Ijt9s8cfBz8AAAA,1 неделю назад,с улицы,есть,40 м²,1.0,3 м,чистовая,15 кВт,центральное,прямая,12 мес.,жилой дом,первая линия,"на улице, бесплатная",55.750109,49.245815,есть,,,,,
Торговая площадь,100000,"Зелёная ул., 7пос. Садовый",https://www.avito.ru/zelenodolsk/kommercheskaya_nedvizhimost/torgovaya_ploschad_7322908999?context=H4sIAAAAAAAA_wE_AMD_YToyOntzOjEzOiJsb2NhbFByaW9yaXR5IjtiOjA7czoxOiJ4IjtzOjE2OiJhSnd5Y1g5WXZ3NVhubzg4Ijt9s8cfBz8AAAA,1 неделю назад,с улицы,есть,52 м²,1.0,4.5 м,чистовая,50 кВт,,прямая,12 мес.,торговый центр,,на улице,55.90793673820955,48.75422112367633,есть,,,возможна,,
"Сдам помещение свободного назначения, 120 м²",1000,"ул. Нариманова, 8/1Набережные Челны",https://www.avito.ru/naberezhnye_chelny/kommercheskaya_nedvizhimost/sdam_pomeschenie_svobodnogo_naznacheniya_120_m_7337826088?context=H4sIAAAAAAAA_wE_AMD_YToyOntzOjEzOiJsb2NhbFByaW9yaXR5IjtiOjA7czoxOiJ4IjtzOjE2OiJhSnd5Y1g5WXZ3NVhubzg4Ijt9s8cfBz8AAAA,1 неделю назад,с улицы,есть,120 м²,1.0,4.5 м,чистовая,,,прямая,11 мес.,торговый центр,,на улице,55.719627,52.362753,есть,,,,,
Помещение свободного назначения,80500,"Набережная ул., 11к1Казань",https://www.avito.ru/kazan/kommercheskaya_nedvizhimost/pomeschenie_svobodnogo_naznacheniya_7347115969?context=H4sIAAAAAAAA_wE_AMD_YToyOntzOjEzOiJsb2NhbFByaW9yaXR5IjtiOjA7czoxOiJ4IjtzOjE2OiJhSnd5Y1g5WXZ3NVhubzg4Ijt9s8cfBz8AAAA,1 неделю назад,со двора,есть,92 м²,1.0,3 м,офисная,,,прямая,11 мес.,административное здание,,на улице,55.80063326149598,49.043991945410994,есть,,эксплуатационные,,,
"Свободного назначения, 56 м²",1100,"Лесная ул., 75Нижнекамск",https://www.avito.ru/nizhnekamsk/kommercheskaya_nedvizhimost/svobodnogo_naznacheniya_56_m_7300431116?context=H4sIAAAAAAAA_wE_AMD_YToyOntzOjEzOiJsb2NhbFByaW9yaXR5IjtiOjA7czoxOiJ4IjtzOjE2OiJhSnd5Y1g5WXZ3NVhubzg4Ijt9s8cfBz8AAAA,1 неделю назад,с улицы,есть,56 м²,1.0,3.3 м,чистовая,380 кВт,центральное,прямая,11 мес.,торговый центр,вторая линия и дальше,"на улице, бесплатная",55.66540909,51.8249588,есть,,,,,
"Помещение 61.2 м² под маникюр, фитнес, пвз",91800,"ул. Профессора Камая, 10к4Казань",https://www.avito.ru/kazan/kommercheskaya_nedvizhimost/pomeschenie_61.2_m_pod_manikyur_fitnes_pvz_7312805229?context=H4sIAAAAAAAA_wE_AMD_YToyOntzOjEzOiJsb2NhbFByaW9yaXR5IjtiOjA7czoxOiJ4IjtzOjE2OiJhSnd5Y1g5WXZ3NVhubzg4Ijt9s8cfBz8AAAA,1 неделю назад,с улицы,есть,61.2 м²,1.0,2.8 м,офисная,10 кВт,центральное,прямая,1 мес.,жилой дом,,"на улице, бесплатная, подходит для грузового транспорта",55.748772,49.182124,,,,,,
Аренда 80 кв м в ЖК Элегия,144000,"ул. Горьковское Шоссе, 2Ак1Казань",https://www.avito.ru/kazan/kommercheskaya_nedvizhimost/arenda_80_kv_m_v_zhk_elegiya_7310127395?context=H4sIAAAAAAAA_wE_AMD_YToyOntzOjEzOiJsb2NhbFByaW9yaXR5IjtiOjA7czoxOiJ4IjtzOjE2OiJhSnd5Y1g5WXZ3NVhubzg4Ijt9s8cfBz8AAAA,1 неделю назад,с улицы,есть,80 м²,1.0,5 м,без отделки,"20 кВт, можно увеличить",,прямая,11 мес.,жилой дом,,"на улице, бесплатная",55.82550049,49.04116058,есть,2.0,,,,
"Свободного назначения, 20 м²",40000,"ул. Адоратского, 1АКазань",https://www.avito.ru/kazan/kommercheskaya_nedvizhimost/svobodnogo_naznacheniya_20_m_7314986592?context=H4sIAAAAAAAA_wE_AMD_YToyOntzOjEzOiJsb2NhbFByaW9yaXR5IjtiOjA7czoxOiJ4IjtzOjE2OiJhSnd5Y1g5WXZ3NVhubzg4Ijt9s8cfBz8AAAA,2 недели назад,с улицы,,20 м²,1.0,,офисная,,центральное,субаренда,,жилой дом,первая линия,"на улице, бесплатная",55.820086,49.146739,есть,,коммунальные,,,
"Торговая площадь, 18 м²",20000,"пр-т Победы, 206Казань",https://www.avito.ru/kazan/kommercheskaya_nedvizhimost/torgovaya_ploschad_18_m_7327443366?context=H4sIAAAAAAAA_wE_AMD_YToyOntzOjEzOiJsb2NhbFByaW9yaXR5IjtiOjA7czoxOiJ4IjtzOjE2OiJhSnd5Y1g5WXZ3NVhubzg4Ijt9s8cfBz8AAAA,2 недели назад,с улицы,,18 м²,1.0,2.5 м,чистовая,,,прямая,11 мес.,другой,,на улице,55.803115,49.210385,есть,,,,,
Свободного назначения,45000,"ул. Четаева, 20Казань",https://www.avito.ru/kazan/kommercheskaya_nedvizhimost/svobodnogo_naznacheniya_7350886290?context=H4sIAAAAAAAA_wE_AMD_YToyOntzOjEzOiJsb2NhbFByaW9yaXR5IjtiOjA7czoxOiJ4IjtzOjE2OiJhSnd5Y1g5WXZ3NVhubzg4Ijt9s8cfBz8AAAA,2 недели назад,с улицы,,35 м²,1.0,2.6 м,чистовая,,,прямая,6 мес.,жилой дом,,на улице,55.8233880982403,49.13067460485186,есть,,,,,
"Пвз, магазин, офис, 39 м2",60000,"ул. Академика Сахарова, 6Казань",https://www.avito.ru/kazan/kommercheskaya_nedvizhimost/pvz_magazin_ofis_39_m2_7294632866?context=H4sIAAAAAAAA_wE_AMD_YToyOntzOjEzOiJsb2NhbFByaW9yaXR5IjtiOjA7czoxOiJ4IjtzOjE2OiJhSnd5Y1g5WXZ3NVhubzg4Ijt9s8cfBz8AAAA,2 недели назад,с улицы,есть,39 м²,1.0,2.6 м,чистовая,5 кВт,,прямая,11 мес.,жилой дом,,"на улице, бесплатная",55.7781868,49.23227692,есть,5.0,,,,
"Аренда. Склад, 126 м², 144 м², 514 м²",600,"Металлургическая ул., 95Набережные Челны",https://www.avito.ru/naberezhnye_chelny/kommercheskaya_nedvizhimost/arenda._sklad_126_m_144_m_514_m_7307986652?context=H4sIAAAAAAAA_wE_AMD_YToyOntzOjEzOiJsb2NhbFByaW9yaXR5IjtiOjA7czoxOiJ4IjtzOjE2OiJhSnd5Y1g5WXZ3NVhubzg4Ijt9s8cfBz8AAAA,2 недели назад,с улицы,есть,126 м²,1.0,4 м,чистовая,100 кВт,автономное,прямая,11 мес.,другой,,"на улице, бесплатная, подходит для грузового транспорта",55.689948,52.489254,,30.0,,,,
Свободного назначения,40000,"ул. Чехова, 20Альметьевск",https://www.avito.ru/almetevsk/kommercheskaya_nedvizhimost/svobodnogo_naznacheniya_7293351941?context=H4sIAAAAAAAA_wE_AMD_YToyOntzOjEzOiJsb2NhbFByaW9yaXR5IjtiOjA7czoxOiJ4IjtzOjE2OiJzZzBJYTBEdEszbWJIU21OIjt9PE7W5j8AAAA,2 недели назад,с улицы,есть,50 м²,1.0,3 м,офисная,250 кВт,,прямая,12 мес.,жилой дом,,"на улице, бесплатная",54.90828705,52.30489349,есть,10.0,,,,
Сдается помещение свободного назначения,1100,"пр-т Хасана Туфана, 8Набережные Челны",https://www.avito.ru/naberezhnye_chelny/kommercheskaya_nedvizhimost/sdaetsya_pomeschenie_svobodnogo_naznacheniya_7321968131?context=H4sIAAAAAAAA_wE_AMD_YToyOntzOjEzOiJsb2NhbFByaW9yaXR5IjtiOjA7czoxOiJ4IjtzOjE2OiJzZzBJYTBEdEszbWJIU21OIjt9PE7W5j8AAAA,2 недели назад,с улицы,,103 м²,1.0,,чистовая,,,прямая,,жилой дом,,на улице,55.739129,52.417424,,,,,,
"Свободного назначения, 150 м²",900,"Машиностроительная ул., 90Набережные Челны",https://www.avito.ru/naberezhnye_chelny/kommercheskaya_nedvizhimost/svobodnogo_naznacheniya_150_m_7333758705?context=H4sIAAAAAAAA_wE_AMD_YToyOntzOjEzOiJsb2NhbFByaW9yaXR5IjtiOjA7czoxOiJ4IjtzOjE2OiJzZzBJYTBEdEszbWJIU21OIjt9PE7W5j8AAAA,2 недели назад,с улицы,есть,150 м²,1.0,3 м,чистовая,"50 кВт, можно увеличить",,прямая,11 мес.,бизнес-центр,,"на улице, бесплатная, подходит для грузового транспорта",55.738302,52.445129,есть,50.0,,,,
Торговая площадь 44 кв.м,110000,"пр-т Ямашева, 17Казань",https://www.avito.ru/kazan/kommercheskaya_nedvizhimost/torgovaya_ploschad_44_kv.m_7320036850?context=H4sIAAAAAAAA_wE_AMD_YToyOntzOjEzOiJsb2NhbFByaW9yaXR5IjtiOjA7czoxOiJ4IjtzOjE2OiJzZzBJYTBEdEszbWJIU21OIjt9PE7W5j8AAAA,2 недели назад,с улицы,,44 м²,1.0,2.8 м,офисная,,,прямая,,административное здание,вторая линия и дальше,на улице,55.826529,49.099461,,,,,,
"Торговая площадь, 60 м²",35000,"ул. Гагарина, 33Лениногорск",https://www.avito.ru/leninogorsk/kommercheskaya_nedvizhimost/torgovaya_ploschad_60_m_7327087719?context=H4sIAAAAAAAA_wE_AMD_YToyOntzOjEzOiJsb2NhbFByaW9yaXR5IjtiOjA7czoxOiJ4IjtzOjE2OiJzZzBJYTBEdEszbWJIU21OIjt9PE7W5j8AAAA,2 недели назад,с улицы,есть,60 м²,1.0,,офисная,"5 кВт, можно увеличить",,прямая,11 мес.,жилой дом,первая линия,"на улице, бесплатная",54.59795126450543,52.45399072144104,есть,10.0,эксплуатационные,,,
Сдам комфортный офис,20000,"Ново-Савиновский район, Меридианная ул., 10Казань",https://www.avito.ru/kazan/kommercheskaya_nedvizhimost/sdam_komfortnyy_ofis_7313078071?context=H4sIAAAAAAAA_wE_AMD_YToyOntzOjEzOiJsb2NhbFByaW9yaXR5IjtiOjA7czoxOiJ4IjtzOjE2OiJzZzBJYTBEdEszbWJIU21OIjt9PE7W5j8AAAA,2 недели назад,с улицы,,13.4 м²,1.0,2.8 м,чистовая,,,прямая,,жилой дом,,на улице,55.82062149,49.11753464,есть,,,,,
"Торговый павильон Халитова,2",60000,"ул. Халитова, 2Казань",https://www.avito.ru/kazan/kommercheskaya_nedvizhimost/torgovyy_pavilon_halitova2_7303606881?context=H4sIAAAAAAAA_wE_AMD_YToyOntzOjEzOiJsb2NhbFByaW9yaXR5IjtiOjA7czoxOiJ4IjtzOjE2OiJzZzBJYTBEdEszbWJIU21OIjt9PE7W5j8AAAA,2 недели назад,с улицы,есть,15 м²,1.0,,чистовая,,,прямая,,другой,,на улице,55.81932831,49.18629074,есть,,,,,
Сдается торговое помещение на трафике,130000,"Ленинградская ул., 22Казань",https://www.avito.ru/kazan/kommercheskaya_nedvizhimost/sdaetsya_torgovoe_pomeschenie_na_trafike_7321319718?context=H4sIAAAAAAAA_wE_AMD_YToyOntzOjEzOiJsb2NhbFByaW9yaXR5IjtiOjA7czoxOiJ4IjtzOjE2OiJzZzBJYTBEdEszbWJIU21OIjt9PE7W5j8AAAA,2 недели назад,с улицы,,60.5 м²,1.0,,чистовая,,,прямая,,жилой дом,,на улице,55.861757,49.085564,,,,,,
"Свободного назначения, 30 м²",60000,"ул. Максимова, 22Казань",https://www.avito.ru/kazan/kommercheskaya_nedvizhimost/svobodnogo_naznacheniya_30_m_7314274221?context=H4sIAAAAAAAA_wE_AMD_YToyOntzOjEzOiJsb2NhbFByaW9yaXR5IjtiOjA7czoxOiJ4IjtzOjE2OiJzZzBJYTBEdEszbWJIU21OIjt9PE7W5j8AAAA,2 недели назад,с улицы,есть,30 м²,1.0,,офисная,,центральное,прямая,11 мес.,другой,первая линия,"на улице, бесплатная",55.861676,49.091008,,,,,,
"Свободного назначения, 141.3 м²",282700,"Приволжский район, мкр-н Горки-3, мкр-н Экопарк Дубрава, ул. Абубекира Терегулова, 12Казань",https://www.avito.ru/kazan/kommercheskaya_nedvizhimost/svobodnogo_naznacheniya_141.3_m_7321938776?context=H4sIAAAAAAAA_wE_AMD_YToyOntzOjEzOiJsb2NhbFByaW9yaXR5IjtiOjA7czoxOiJ4IjtzOjE2OiJzZzBJYTBEdEszbWJIU21OIjt9PE7W5j8AAAA,2 недели назад,с улицы,есть,141.3 м²,1.0,3 м,без отделки,15 кВт,центральное,прямая,11 мес.,жилой дом,,"на улице, бесплатная",55.73554569101963,49.20770599538415,есть,,,,,
"Свободного назначения, 63 м²",850,"1-й комплекс, 9АНабережные Челны",https://www.avito.ru/naberezhnye_chelny/kommercheskaya_nedvizhimost/svobodnogo_naznacheniya_63_m_7307134721?context=H4sIAAAAAAAA_wE_AMD_YToyOntzOjEzOiJsb2NhbFByaW9yaXR5IjtiOjA7czoxOiJ4IjtzOjE2OiJzZzBJYTBEdEszbWJIU21OIjt9PE7W5j8AAAA,2 недели назад,с улицы,есть,63 м²,1.0,3.5 м,чистовая,,центральное,прямая,11 мес.,торговый центр,первая линия,"на улице, бесплатная",55.74367650082068,52.42511186109638,,30.0,,,,
Свободного назначения,1230,"Мензелинский тракт, 3Набережные Челны",https://www.avito.ru/naberezhnye_chelny/kommercheskaya_nedvizhimost/svobodnogo_naznacheniya_7307481639?context=H4sIAAAAAAAA_wE_AMD_YToyOntzOjEzOiJsb2NhbFByaW9yaXR5IjtiOjA7czoxOiJ4IjtzOjE2OiJzZzBJYTBEdEszbWJIU21OIjt9PE7W5j8AAAA,2 недели назад,с улицы,есть,55 м²,1.0,3 м,чистовая,15 кВт,,прямая,11 мес.,административное здание,,"на улице, бесплатная, подходит для грузового транспорта",55.70637894,52.39430237,есть,15.0,,,,
"Торговая площадь, 37 м²",37000,"ул. Бурхана Шахиди, 17Казань",https://www.avito.ru/kazan/kommercheskaya_nedvizhimost/torgovaya_ploschad_37_m_7304110965?context=H4sIAAAAAAAA_wE_AMD_YToyOntzOjEzOiJsb2NhbFByaW9yaXR5IjtiOjA7czoxOiJ4IjtzOjE2OiJzZzBJYTBEdEszbWJIU21OIjt9PE7W5j8AAAA,2 недели назад,с улицы,,20 м²,1.0,,чистовая,,центральное,прямая,11 мес.,торговый центр,первая линия,на улице,55.786769,49.106549,,,"коммунальные, эксплуатационные",,,
"Офис, 46.9 м²",60970,"ул. Восстания, 100к9190Казань",https://www.avito.ru/kazan/kommercheskaya_nedvizhimost/ofis_46.9_m_7338349460?context=H4sIAAAAAAAA_wE_AMD_YToyOntzOjEzOiJsb2NhbFByaW9yaXR5IjtiOjA7czoxOiJ4IjtzOjE2OiJzZzBJYTBEdEszbWJIU21OIjt9PE7W5j8AAAA,2 недели назад,,,46.9 м²,1.0,3 м,офисная,"15 кВт, можно увеличить",,прямая,11 мес.,административное здание,,"на улице, бесплатная",55.833668,49.051617,,70.0,"коммунальные, эксплуатационные",,кабинетная,
Аренда/Продажа,2000,"ул. 30 лет Победы, 21Нижнекамск",https://www.avito.ru/nizhnekamsk/kommercheskaya_nedvizhimost/arendaprodazha_7294298148?context=H4sIAAAAAAAA_wE_AMD_YToyOntzOjEzOiJsb2NhbFByaW9yaXR5IjtiOjA7czoxOiJ4IjtzOjE2OiJzZzBJYTBEdEszbWJIU21OIjt9PE7W5j8AAAA,2 недели назад,с улицы,есть,100 м²,1.0,4 м,чистовая,"40 кВт, можно увеличить",,прямая,11 мес.,торговый центр,,на улице,55.63208662022437,51.78965562339817,есть,,,возможна,,
Торговая площадь,130000,"ул. Серова, 22/24Казань",https://www.avito.ru/kazan/kommercheskaya_nedvizhimost/torgovaya_ploschad_7327679833?context=H4sIAAAAAAAA_wE_AMD_YToyOntzOjEzOiJsb2NhbFByaW9yaXR5IjtiOjA7czoxOiJ4IjtzOjE2OiJzZzBJYTBEdEszbWJIU21OIjt9PE7W5j8AAAA,2 недели назад,с улицы,,110 м²,1.0,,чистовая,,,прямая,11 мес.,жилой дом,,"на улице, бесплатная, подходит для грузового транспорта",55.82420349,49.07065964,есть,,,,,
Сдаю торговое помещение 137м² на первой линии Мамадышского тракта,2500,"ул. Мамадышский Тракт, 1Казань",https://www.avito.ru/kazan/kommercheskaya_nedvizhimost/sdayu_torgovoe_pomeschenie_137m_na_pervoy_linii_mamadyshskogo_trakta_7321917026?context=H4sIAAAAAAAA_wE_AMD_YToyOntzOjEzOiJsb2NhbFByaW9yaXR5IjtiOjA7czoxOiJ4IjtzOjE2OiJzZzBJYTBEdEszbWJIU21OIjt9PE7W5j8AAAA,2 недели назад,с улицы,,136.7 м²,1.0,,офисная,,,прямая,,административное здание,,на улице,55.795864,49.227624,,,,,,
"Свободного назначения, склад, производство",25000,"ул. Клары Цеткин, 31/106Казань",https://www.avito.ru/kazan/kommercheskaya_nedvizhimost/svobodnogo_naznacheniya_sklad_proizvodstvo_7355334846?context=H4sIAAAAAAAA_wE_AMD_YToyOntzOjEzOiJsb2NhbFByaW9yaXR5IjtiOjA7czoxOiJ4IjtzOjE2OiJzZzBJYTBEdEszbWJIU21OIjt9PE7W5j8AAAA,2 недели назад,со двора,,35 м²,1.0,2.8 м,чистовая,,,прямая,11 мес.,другой,,"на улице, бесплатная",55.79719925,49.05095291,есть,20.0,"коммунальные, эксплуатационные",,,
Свободного назначения,1000,"пр-т Мира, 110Нижнекамск",https://www.avito.ru/nizhnekamsk/kommercheskaya_nedvizhimost/svobodnogo_naznacheniya_7307120688?context=H4sIAAAAAAAA_wE_AMD_YToyOntzOjEzOiJsb2NhbFByaW9yaXR5IjtiOjA7czoxOiJ4IjtzOjE2OiJzZzBJYTBEdEszbWJIU21OIjt9PE7W5j8AAAA,2 недели назад,с улицы,есть,45 м²,1.0,,чистовая,,,прямая,,торговый центр,,"на улице, бесплатная, подходит для грузового транспорта",55.63219847242147,51.78682096103877,есть,,,,,
"Свободного назначения, 5 м²",25000,"ул. Пушкина, 40Казань",https://www.avito.ru/kazan/kommercheskaya_nedvizhimost/svobodnogo_naznacheniya_5_m_7308373040?context=H4sIAAAAAAAA_wE_AMD_YToyOntzOjEzOiJsb2NhbFByaW9yaXR5IjtiOjA7czoxOiJ4IjtzOjE2OiJzZzBJYTBEdEszbWJIU21OIjt9PE7W5j8AAAA,2 недели назад,со двора,,5 м²,1.0,3 м,чистовая,,,прямая,,другой,,на улице,55.79308701,49.1252861,есть,,,,,
"Торговая площадь, рядом станция вокзал",900,"Вокзальная ул., 37Арск",https://www.avito.ru/arsk/kommercheskaya_nedvizhimost/torgovaya_ploschad_ryadom_stantsiya_vokzal_7317385580?context=H4sIAAAAAAAA_wE_AMD_YToyOntzOjEzOiJsb2NhbFByaW9yaXR5IjtiOjA7czoxOiJ4IjtzOjE2OiJzZzBJYTBEdEszbWJIU21OIjt9PE7W5j8AAAA,2 недели назад,с улицы,,30 м²,1.0,3.5 м,без отделки,,,прямая,,торговый центр,,на улице,56.07785416,49.8885231,есть,,коммунальные,,,
"Помещение 18 м² под салон, студию, склад",27000,"ул. Профессора Камая, 10к4Казань",https://www.avito.ru/kazan/kommercheskaya_nedvizhimost/pomeschenie_18_m_pod_salon_studiyu_sklad_7312024578?context=H4sIAAAAAAAA_wE_AMD_YToyOntzOjEzOiJsb2NhbFByaW9yaXR5IjtiOjA7czoxOiJ4IjtzOjE2OiJzZzBJYTBEdEszbWJIU21OIjt9PE7W5j8AAAA,2 недели назад,с улицы,есть,18 м²,1.0,2.8 м,офисная,10 кВт,,прямая,11 мес.,жилой дом,,"на улице, бесплатная",55.74877167,49.18212509,есть,,,,,
"Помещение 101.5 м² под магазин, офис, салон",162400,"ул. Гарифа Ахунова, 22АКазань",https://www.avito.ru/kazan/kommercheskaya_nedvizhimost/pomeschenie_101.5_m_pod_magazin_ofis_salon_7312902008?context=H4sIAAAAAAAA_wE_AMD_YToyOntzOjEzOiJsb2NhbFByaW9yaXR5IjtiOjA7czoxOiJ4IjtzOjE2OiJzZzBJYTBEdEszbWJIU21OIjt9PE7W5j8AAAA,2 недели назад,с улицы,есть,101.5 м²,1.0,2.8 м,офисная,10 кВт,центральное,прямая,11 мес.,торговый центр,первая линия,"на улице, бесплатная, подходит для грузового транспорта",55.729133,49.173069,,,,,,
"Торговая площадь, 65 м²",65000,"ул. Горьковское Шоссе, 49к1Казань",https://www.avito.ru/kazan/kommercheskaya_nedvizhimost/torgovaya_ploschad_65_m_7314753575?context=H4sIAAAAAAAA_wE_AMD_YToyOntzOjEzOiJsb2NhbFByaW9yaXR5IjtiOjA7czoxOiJ4IjtzOjE2OiJzZzBJYTBEdEszbWJIU21OIjt9PE7W5j8AAAA,2 недели назад,с улицы,есть,65 м²,1.0,,офисная,,центральное,прямая,11 мес.,бизнес-центр,первая линия,на улице,55.825669,49.023248,,,,,,
"Свободного назначения, 118 м²",118000,"ул. Горьковское Шоссе, 49к1Казань",https://www.avito.ru/kazan/kommercheskaya_nedvizhimost/svobodnogo_naznacheniya_118_m_7314695780?context=H4sIAAAAAAAA_wE_AMD_YToyOntzOjEzOiJsb2NhbFByaW9yaXR5IjtiOjA7czoxOiJ4IjtzOjE2OiJzZzBJYTBEdEszbWJIU21OIjt9PE7W5j8AAAA,2 недели назад,со двора,есть,118 м²,1.0,,чистовая,,центральное,прямая,11 мес.,бизнес-центр,первая линия,на улице,55.825669,49.023248,,,,,,
"Сдам торговое помещение, 12.5 м²",40000,"ул. Восстания, 4Казань",https://www.avito.ru/kazan/kommercheskaya_nedvizhimost/sdam_torgovoe_pomeschenie_12.5_m_7294385421?context=H4sIAAAAAAAA_wE_AMD_YToyOntzOjEzOiJsb2NhbFByaW9yaXR5IjtiOjA7czoxOiJ4IjtzOjE2OiJzZzBJYTBEdEszbWJIU21OIjt9PE7W5j8AAAA,2 недели назад,с улицы,,12.5 м²,1.0,,офисная,,,прямая,,другой,,на улице,55.836504,49.100162,,,,,,
